Longitude,Latitude,Walmart Type,Store Name,Store Number,Fuel Type,Street,City,State/Province,Zip/Postal Code,Interstate/Highway,Interstate 2,Interstate Designation,Frontage-Service Road,Exit,Phone Number,NOP
-114.005671,51.262567,Supercenter,Walmart,1050,NA,2881 Main St SW,Airdrie,AB,T4B 3G5,,,,No,,(403) 945-1295,
-111.900542,50.577939,Supercenter,Walmart,3658,NA,917 3rd St W,Brooks,AB,T1R 1L5,,,,No,,(403) 793-2111,
-114.039133,51.107253,Supercenter,Walmart,3013,NA,1110 57th Ave NE,Calgary,AB,T2E 9B7,,,,No,,(403) 730-0990,Yes
-114.138488,51.040871,Supercenter,Walmart,3009,Gas,1212 37 St SW,Calgary,AB,T3C 1S3,,,,No,,(403) 242-2205,Yes
-114.028603,50.930551,Regular,Walmart,1144,NA,1221 Canyon Meadows Dr SE,Calgary,AB,T2J 6G2,,,,No,,(403) 225-6638,
-113.91159,51.04009,Supercenter,Walmart,1136,NA,255 E Hills Blvd SE,Calgary,AB,T2A 4X7,,,,No,,(403) 387-0850,
-114.145518,51.1757,Supercenter,Walmart,1097,NA,35 Sage Hill Gate NW,Calgary,AB,T3R 0S4,,,,No,,(587) 230-8411,
-113.989925,51.053615,Supercenter,Walmart,3012,NA,3800 Memorial Dr NE,Calgary,AB,T2A 2K2,,,,No,,(403) 235-2352,Yes
-113.966699,50.930235,Supercenter,Walmart,3650,NA,4705 130th Ave,Calgary,AB,T2Z 4J2,,,,No,,(403) 726-0430,
-114.142114,51.097447,Regular,Walmart,3011,Gas,5005 Northland Dr NW,Calgary,AB,T2L 2K1,,,,No,,(403) 247-8585,Yes
-114.039281,50.984422,Supercenter,Walmart,1089,NA,7979 11 St SE,Calgary,AB,T2H 0B8,,,,No,,(403) 301-2051,Yes
-114.213235,51.152812,Supercenter,Walmart,5726,NA,8888 Country Hills Blvd #200,Calgary,AB,T3G 5T4,,,,No,,(403) 567-1502,Yes
-114.070155,50.966056,Supercenter,Walmart,3010,Gas,9650 Macleod Trail,Calgary,AB,T2J 0P7,,,,No,,(403) 258-3988,Yes
-112.859721,53.019324,Supercenter,Walmart,3181,NA,6800 48th Ave,Camrose,AB,T4V 4T1,,,,No,,(780) 608-1211,
-114.471376,51.186312,Supercenter,Walmart,1135,NA,15 Quarry St W,Cochrane,AB,T4C 0W5,,,,No,,(403) 851-3040,
-110.20215,54.408152,Supercenter,Walmart,3640,NA,4702 43 Ave,Cold Lake,AB,T9M 1M9,,,,No,,(780) 840-2340,
-114.994295,53.225812,Supercenter,Walmart,1008,NA,5217 Power Centre Blvd,Drayton Valley,AB,T7A 1S7,,,,No,,(780) 514-3207,
-112.687064,51.449393,Regular,Walmart,1028,NA,1801 S Railway Ave,Drumheller,AB,T0J 0Y0,,,,No,,(403) 820-7744,
-113.389302,53.571242,Regular,Walmart,1148,NA,1 Westmount Shopping Centre,Edmonton,AB,T5M 3L7,,,,No,,(780) 453-5801,
-113.59472,53.520574,Supercenter,Walmart,1149,NA,100 Meadowlark Shopping Centre NW,Edmonton,AB,T5R 5X1,,,,No,,(780) 483-4522,
-113.420415,53.421597,Supercenter,Walmart,1187,NA,110 Watt Common SW,Edmonton,AB,T6X 1X2,,,,No,,(587) 984-2091,
-113.481662,53.441312,Supercenter,Walmart,3029,NA,1203 Parsons Rd NW,Edmonton,AB,T6N 0A9,,,,No,,(780) 463-6030,Yes
-113.402255,53.599701,Supercenter,Walmart,3028,NA,13703 40 St NW,Edmonton,AB,T5Y 3B5,,,,No,,(780) 476-4460,
-113.542507,53.631757,Supercenter,Walmart,1122,NA,16940 127th St NW,Edmonton,AB,T6V 1S8,,,,No,,(780) 457-4366,
-113.644092,53.539488,Supercenter,Walmart,3027,NA,18521 Stony Plain Rd NW,Edmonton,AB,T5S 2V9,,,,No,,(780) 487-8626,
-113.390984,53.570576,Supercenter,Walmart,1147,NA,3210 118th Ave NW,Edmonton,AB,T5W 4W1,,,,No,,(780) 474-8015,
-113.494111,53.473023,Supercenter,Walmart,1145,NA,3931 Calgary Trail NW,Edmonton,AB,T6J 5M8,,,,No,,(780) 437-7468,Yes
-113.420457,53.539812,Supercenter,Walmart,3026,NA,5004 98 Ave NW,Edmonton,AB,T6A 0A2,,,,No,,(780) 466-2002,Yes
-113.600688,53.437912,Supercenter,Walmart,1094,NA,6110 Currents Dr. NW,Edmonton,AB,T6W 0L7,,,,No,,(780) 438-1190,Yes
-113.36349,53.478497,Supercenter,Walmart,1138,NA,775 Tamarack Way NW,Edmonton,AB,T6T 1H9,,,,No,,(587) 983-6228,
-113.486918,53.597308,Supercenter,Walmart,1146,NA,9402 135th Ave NW,Edmonton,AB,T5E 5R8,,,,No,,(780) 406-8807,
-116.448739,53.577055,Supercenter,Walmart,1048,NA,5750 2nd Ave,Edson,AB,T7E 0A1,,,,No,,(780) 723-6357,
-111.359153,56.72178,Regular,Walmart,3157,NA,2 Hospital St,Fort McMurray,AB,T9H 5E4,,,,No,,(780) 790-6012,
-113.211403,53.69665,Supercenter,Walmart,5753,NA,9551 87 Ave,Fort Saskatchewan,AB,T8L 4N3,,,,No,,(780) 998-3633,Yes
-118.82819,55.17204,Supercenter,Walmart,3147,NA,11050 103 Ave,Grande Prairie,AB,T8V 7H1,,,,No,,(780) 513-3740,
-117.621222,53.386207,Regular,Walmart,3038,NA,100 900 Carmichael Lane,Hinton,AB,T7V 1Y6,,,,No,,(780) 865-1421,
-113.568259,53.268594,Supercenter,Walmart,3657,NA,5302 Discovery Way,Leduc,AB,T9E 8J7,,,,No,,(780) 986-7574,
-112.791108,49.728593,Supercenter,Walmart,1078,NA,3195 26th Ave N,Lethbridge,AB,T1H 5P4,,,,No,,(403) 380-6722,
-112.795234,49.65775,Supercenter,Walmart,3048,NA,3700 Mayor Magrath Dr S,Lethbridge,AB,T1K 7T6,,,,No,,(403) 328-6277,
-110.049273,53.27654,Supercenter,Walmart,3168,Gas,4210 70th Ave,Lloydminster,AB,T9V 2X3,,,,No,,(780) 875-4777,
-110.642617,49.995015,Supercenter,Walmart,3150,NA,2051 Strachan Rd SE,Medicine Hat,AB,T1B 4J8,,,,No,,(403) 504-4410,
-113.977544,50.714099,Supercenter,Walmart,5708,NA,500 - 201 SouthRidge Dr,Okotoks,AB,T1S 2C8,,,,No,,(403) 995-1371,
-114.141037,51.799211,Supercenter,Walmart,1084,NA,6900 46th St,Olds,AB,T4H OA2,,,,No,,(403) 556-3844,
-117.339138,56.2367,Supercenter,Walmart,1068,NA,9701 78th St,Peace River,AB,T8S 0A3,,,,No,,(708) 624-8911,
-113.947413,49.497742,Supercenter,Walmart,1070,NA,1100 Table Mountain Rd,Pincher Creek,AB,T0K 1W0,,,,No,,(403) 627-1790,
-113.81431,52.23347,Supercenter,Walmart,3194,NA,2010 50 Ave,Red Deer,AB,T4R 3A2,,,,No,,(403) 358-5842,
-113.812575,52.286129,Supercenter,Walmart,3075,NA,6375 50th Ave,Red Deer,AB,T4N 4C7,,,,No,,(403) 346-6650,
-113.633174,53.659257,Supercenter,Walmart,3087,NA,700 Saint Albert Rd,Saint Albert,AB,T8N 7A5,,,,No,,(780) 458-1629,Yes
-114.062149,50.900758,Supercenter,Walmart,3151,Gas,100 - 310 Shawville Blvd,Shawnessy,AB,T2Y 3S4,,,,No,,(403) 201-5415,Yes
-113.318006,53.511029,Supercenter,Walmart,3154,Gas,239 Wye Rd,Sherwood Park,AB,T8B 1N1,,,,No,,(780) 464-2105,
-113.279915,53.568364,Supercenter,Walmart,1123,NA,400-7000 Emerald Dr,Sherwood Park,AB,T8H 0P5,,,,No,,(780) 464-0418,
-114.784367,55.272669,Supercenter,Walmart,1030,NA,601 - 1500 Main St SW,Slave Lake,AB,T0G 2A4,,,,No,,(780) 849-9579,
-113.931937,53.539693,Supercenter,Walmart,3637,NA,90 Campsite Rd,Spruce Grove,AB,T7X 4H4,,,,No,,(780) 962-9002,
-112.738479,52.324303,Supercenter,Walmart,1034,NA,4721 70 St,Stettler,AB,T0C 2L1,,,,No,,(403) 742-4404,
-113.381997,51.038849,Supercenter,Walmart,1049,NA,200 Ranch Market,Strathmore,AB,T1P 0A1,,,,No,,(403) 934-9776,
-114.063359,52.305462,Supercenter,Walmart,1102,NA,3420 47th Ave,Sylvan Lake,AB,T4S 0B6,,,,No,,(403) 887-7590,Yes
-112.128097,49.783451,Regular,Walmart,1046,NA,4500 64 St,Taber,AB,T1G 0A4,,,,No,,(403) 223-3458,
-112.082576,53.502912,Supercenter,Walmart,1071,NA,6809 Hwy 16A W,Vegreville,AB,T9C 0A2,,,,No,,(780) 632-6016,
-110.827387,52.841926,Supercenter,Walmart,1062,NA,2901 13th Ave,Wainwright,AB,T9W 0A1,,,,No,,(780) 842-3144,
-113.393672,52.953464,Supercenter,Walmart,3112,NA,3600 56 St,Wetaskiwin,AB,T9A 3T5,,,,No,,(780) 352-8093,
-115.668503,54.141354,Supercenter,Walmart,1009,NA,5005 Dahl Dr,Whitecourt,AB,T7S 1P6,,,,No,,(780) 706-3323,
-149.881507,61.192165,Supercenter,Walmart,2070,NA,3101 A St,Anchorage,AK,99503,,,,No,,(907) 563-5900,Yes
-149.74255,61.21274,Supercenter,Walmart,4359,NA,7405 Debarr Rd,Anchorage,AK,99504,,,,No,,(907) 339-9039,Yes
-149.868161,61.140234,Supercenter,Walmart,2071,NA,8900 Old Seward Hwy,Anchorage,AK,99515,,,,No,,(907) 344-5300,Yes
-149.535324,61.30978,Supercenter,Walmart,2188,NA,18600 Eagle River Rd,Eagle River,AK,99577,,,,No,,(907) 694-9780,Yes
-147.688971,64.857356,Supercenter,Walmart,2722,NA,537 Johansen Expy,Fairbanks,AK,99701,,,,No,,(907) 451-9900,
-151.226631,60.564167,Supercenter,Walmart,4474,NA,10096 Kenai Spur,Kenai,AK,99611,,,,No,,(907) 395-0971,
-131.720364,55.376113,Regular,Walmart,2710,NA,4230 Don King Rd,Ketchikan,AK,99901,,,,No,,(907) 247-2156,
-152.36445,57.811389,Regular,Walmart,2711,NA,2911 Mill Bay Rd,Kodiak,AK,99615,,,,No,,(907) 481-1670,
-149.362998,61.568711,Supercenter,Walmart,2074,NA,1350 S Seward Meridian Pkwy,Wasilla,AK,99654,,,,No,,(907) 376-9780,
-86.803848,33.235798,NA,Murphy: USA,7687,Gas/Diesel,560 Colonial Promenade Pkwy,Alabaster,AL,35007,I-65,,,No, 238,(205) 685-9750,
-86.80236,33.235791,Supercenter,Walmart,0423,Gas/Diesel,630 Colonial Promenade Pkwy,Alabaster,AL,35007,I-65,,,No, 238,(205) 620-0360,
-86.828684,33.211457,Neighborhood Market,Walmart,4756,Gas,9085 Hwy 119,Alabaster,AL,35007,I-65,,,No, 238,(205) 624-6229,
-85.9783568,32.9396785,NA,Murphy: USA,5684,Gas,2507 Hwy 280,Alexander City,AL,35010,,,,No,,(256) 234-0415,
-85.976666,32.940771,Supercenter,Walmart,0726,Gas,2643 Hwy 280,Alexander City,AL,35010,,,,No,,(256) 234-0316,
-86.445471,31.320815,Supercenter,Walmart,1091,Gas/Diesel,1991 Dr MLK Jr Expy,Andalusia,AL,36420,,,,No,,(334) 222-6561,
-86.4472847,31.3187358,NA,Murphy: USA,7394,Gas/Diesel,1997 Dr MLK Jr Expy,Andalusia,AL,36420,,,,No,,(334) 222-3846,
-85.819395,33.719758,Supercenter,Walmart,0329,Gas,5560 McClellan Blvd,Anniston,AL,36206,,,,No,,(256) 820-3326,
-85.8180352,33.7192029,NA,Murphy: USA,5624,Gas,5564 McClellan Blvd,Anniston,AL,36206,,,,No,,(256) 847-4040,
-86.500972,34.341907,Supercenter,Walmart,0306,Gas/Diesel,1450 N Brindlee Mountain Pkwy,Arab,AL,35016,,,,No,,(256) 586-8168,
-86.5026703,34.3428307,NA,Murphy: USA,6890,Gas/Diesel,1468 N Brindlee Mountain Pkwy,Arab,AL,35016,,,,No,,(256) 586-6070,
-86.958676,34.787751,Supercenter,Walmart,0661,Gas,1011 Hwy 72 E,Athens,AL,35611,I-65,,,No, 351,(256) 230-2981,
-86.956765,34.788609,NA,Murphy: USA,5625,Gas,800 Hwy 31,Athens,AL,35611,,,,No,,(256) 216-9073,
-87.493024,31.035551,Supercenter,Walmart,7247,NA,911 N Main St,Atmore,AL,36502,,,,No,,(251) 368-1403,
-86.093527,33.994538,Supercenter,Walmart,0316,Gas,973 Gilbert Ferry Rd SE,Attalla,AL,35954,I-59,,,No, 181,(256) 538-3811,
-85.4993057,32.5712166,NA,Murphy: USA,6562,Gas,1717 S College St,Auburn,AL,36832,I-85,,,No, 51,(334) 502-7196,
-85.497471,32.571045,Supercenter,Walmart,0356,Gas,1717 S College St,Auburn,AL,36830,I-85,,,No, 51,(334) 821-2493,
-85.507812,32.601971,Neighborhood Market,Walmart,4673,Gas,1810 Shug Jordan Pkwy,Auburn,AL,36832,,,,No,,(334) 539-6318,
-85.449951,32.624538,Neighborhood Market,Walmart,5062,Gas,2047 E University Dr,Auburn,AL,36830,,,,No,,(334) 539-6214,
-85.430014,32.608515,NA,Sam's Club,4989,Gas/Diesel,2335 Bent Creek Rd,Auburn,AL,36830,I-85,,,No, 57,(334) 821-0121,
-87.7880976,30.8845009,NA,Murphy: USA,6735,Gas/Diesel,1000 W 7th,Bay Minette,AL,36507,,,,No,,(251) 580-5189,
-87.789589,30.885155,Supercenter,Walmart,2739,Gas/Diesel,701 McMeans Ave,Bay Minette,AL,36507,,,,No,,(251) 937-5558,
-87.000752,33.361937,Supercenter,Walmart,0764,Gas/Diesel,750 Academy Dr,Bessemer,AL,35022,I-20,I-59,,No, 108,(205) 424-5890,
-86.999478,33.361967,NA,Murphy: USA,7542,Gas/Diesel,756 Academy Dr,Bessemer,AL,35022,I-20,I-59,,No, 108,(205) 428-2447,
-86.7015166,33.5865737,NA,Murphy: USA,7022,Gas/Diesel,121 Roebuck Plaza Dr ,Birmingham,AL,35206,,,,No,,(205) 838-2277,
-86.684336,33.637771,Neighborhood Market,Walmart,5100,NA,1916 Center Point Rd,Birmingham,AL,35215,,,,No,,(205) 520-0269,Yes
-86.924324,33.580015,Supercenter,Walmart,1158,NA,2473 Hackworth Rd,Birmingham,AL,35005,,,,No,,(205) 798-9721,
-86.739678,33.383703,Neighborhood Market,Walmart,3424,NA,2653 Valleydale Rd,Birmingham,AL,35244,,,,No,,(205) 582-6183,Yes
-86.820963,33.467775,Neighborhood Market,Walmart,4504,NA,312 Palisades Blvd,Birmingham,AL,35209,I-65,,,No, 256,(205) 870-8101,Yes
-86.675768,33.421066,Supercenter,Walmart,2111,NA,5335 Hwy 280 S,Birmingham,AL,35242,,,,No,,(205) 980-5156,
-86.629063,33.639944,Supercenter,Walmart,2713,NA,5919 Trussville Crossings Pkwy,Birmingham,AL,35235,I-59,,,No, 141,(205) 661-1973,
-86.625486,33.64461,NA,Sam's Club,4817,Gas,5940 Trussville Crossing Blvd,Birmingham,AL,35235,I-59,,,No, 141,(205) 655-0505,
-86.702787,33.588879,Supercenter,Walmart,0762,Gas/Diesel,9248 Pkwy E,Birmingham,AL,35215,I-59,,,No, 134,(205) 833-7676,Yes
-86.154183,34.214719,Supercenter,Walmart,0298,Gas/Diesel,1972 Hwy 431,Boaz,AL,35957,,,,No,,(256) 593-0195,
-86.156547,34.215927,NA,Murphy: USA,6884,Gas/Diesel,2040 Hwy 431,Boaz,AL,35957,,,,No,,(256) 593-0975,
-87.171218,32.963891,Supercenter,Walmart,0425,NA,10675 Hwy 5,Brent,AL,35034,,,,No,,(205) 926-4878,
-87.071111,31.139671,Supercenter,Walmart,1620,NA,2578 Douglas Ave,Brewton,AL,36426,,,,No,,(251) 867-4680,
-86.7498748,33.146051,NA,Murphy: USA,6694,Gas/Diesel,169 Super Center Dr ,Calera,AL,35040,,,,No,,(205) 668-2778,
-86.749933,33.146733,Supercenter,Walmart,3271,Gas/Diesel,5100 Hwy 31,Calera,AL,35040,I-65,,,No, 231,(205) 668-0831,
-85.713114,34.162109,Supercenter,Walmart,5126,Gas/Diesel,1950 W Main St,Centre,AL,35960,,,,No,,(256) 927-9900,
-85.7141867,34.161121,NA,Murphy: USA,6924,Gas/Diesel,1960 W Main St,Centre,AL,35960,,,,No,,(256) 927-5670,
-86.61854,33.349443,NA,Murphy: USA,7545,Gas/Diesel,16073 Hwy 280,Chelsea,AL,35043,,,,No,,(205) 678-0590,
-86.619256,33.348741,Supercenter,Walmart,4330,NA,16077 Hwy 280,Chelsea,AL,35043,,,,No,,(205) 678-2222,
-86.6091614,32.819024,NA,Murphy: USA,5686,Gas,1411 7th St S,Clanton,AL,35045,,,,No,,(205) 280-4542,
-86.608656,32.81751,Supercenter,Walmart,0424,Gas,1415 7th St S,Clanton,AL,35045,,,,No,,(205) 755-7574,
-86.867642,34.206543,Supercenter,Walmart,7280,NA,5601 Hwy 157,Cullman,AL,35058,,,,No,,(256) 615-6667,
-86.8416667,34.1515669,NA,Murphy: USA,6770,Gas/Diesel,624 Olive St SW,Cullman,AL,35055,,,,No,,(256) 739-7143,
-86.84217,34.150102,Supercenter,Walmart,0670,Gas/Diesel,626 Olive St SW,Cullman,AL,35055,,,,No,,(256) 734-8904,
-87.9055252,30.6250114,NA,Murphy: USA,6619,Gas/Diesel,27521 Walmart Dr ,Daphne,AL,36526,,,,No,,(251) 625-0940,
-87.855036,30.659206,NA,Sam's Club,4990,Gas/Diesel,29683 Frederick Blvd,Daphne,AL,36526,,,,No,,(251) 626-6909,
-87.905836,30.625109,Supercenter,Walmart,0934,Gas/Diesel,27520 Hwy 98,Daphne/lake Forest,AL,36526,,,,No,,(251) 626-0923,Yes
-86.980726,34.589341,Neighborhood Market,Walmart,2488,NA,1203 6th Ave SE,Decatur,AL,35601,,,,No,,(256) 822-6366,Yes
-86.996774,34.556577,Supercenter,Walmart,0662,Gas,2800 Spring Ave SW,Decatur,AL,35603,,,,No,,(256) 350-4624,
-86.99665,34.556568,NA,Murphy: USA,6500,Gas,2800 Spring Ave SW,Decatur,AL,35603,,,,No,,(256) 301-1734,
-87.8490146,32.4968485,NA,Murphy: USA,7274,Gas/Diesel,1057 Hwy 80 W,Demopolis,AL,36732,,,,No,,(334) 287-2199,
-87.849767,32.493672,Supercenter,Walmart,0731,Gas/Diesel,969 Hwy 80 W,Demopolis,AL,36732,,,,No,,(334) 289-2385,
-85.403192,31.178689,Supercenter,Walmart,2534,Gas/Diesel,3300 S Oates St,Dothan,AL,36301,,,,No,,(334) 702-1310,
-85.4020668,31.177897,NA,Murphy: USA,6740,Gas/Diesel,3370 S Oates St,Dothan,AL,36301,,,,No,,(334) 673-9393,
-85.427009,31.244343,NA,Sam's Club,8192,Gas,3440 Ross Clark Crl NW,Dothan,AL,36303,,,,No,,(334) 671-5005,
-85.450272,31.232255,Neighborhood Market,Walmart,5769,NA,3871 W Main St,Dothan,AL,36305,,,,No,,(334) 547-6508,
-85.440582,31.267021,Supercenter,Walmart,0604,Gas/Diesel,4310 Montgomery Hwy,Dothan,AL,36303,,,,No,,(334) 793-3099,
-85.8486633,31.3409863,NA,Murphy: USA,5716,Gas,600 Boll Weevil Circle,Enterprise,AL,36330,,,,No,,(334) 347-0615,
-85.827301,31.315718,Supercenter,Walmart,0734,Gas,600 Boll Weevil Circle,Enterprise,AL,36330,,,,No,,(334) 347-5353,
-85.169277,31.843765,Supercenter,Walmart,1638,Gas/Diesel,3176 S Eufaula Ave,Eufaula,AL,36072,,,,No,,(334) 687-2218,
-85.1674238,31.8433604,NA,Murphy: USA,7478,Gas/Diesel,3182 S Eufaula Ave,Eufaula,AL,36027,,,,No,,(334) 687-0190,
-86.9149259,33.4660593,NA,Murphy: USA,7380,Gas/Diesel,7203 Aaron Aronov Dr,Fairfield,AL,35064,,,,No,,(205) 925-0365,
-87.851335,30.523594,Supercenter,Walmart,4333,NA,10040 County Rd 48,Fairhope,AL,36533,,,,No,,(251) 990-9006,
-87.8524605,30.5214096,NA,Murphy: USA,7506,Gas/Diesel,20390 Hwy 181,Fairhope,AL,36532,,,,No,,(251) 929-0695,
-87.8091542,33.7337371,NA,Murphy: USA,5746,Gas,3184 Hwy 171 N,Fayette,AL,35555,,,,No,,(205) 932-2130,
-87.809441,33.731747,Supercenter,Walmart,1052,Gas,3186 Hwy 171 N,Fayette,AL,35555,,,,No,,(205) 932-5277,
-87.657927,34.818559,Neighborhood Market,Walmart,4188,NA,1410 Florence Blvd,Florence,AL,35630,,,,No,,(256) 712-6195,Yes
-87.686623,34.841215,Supercenter,Walmart,4187,NA,2701 Cloverdale Rd,Florence,AL,35633,,,,No,,(256) 712-6410,
-87.626348,34.834258,Supercenter,Walmart,0766,NA,3100 Hough Rd,Florence,AL,35630,,,,No,,(256) 767-7581,
-87.633309,34.840258,NA,Sam's Club,8196,Gas/Diesel,364 Cox Creek Pkwy,Florence,AL,35630,,,,No,,(256) 767-9960,
-87.6834331,30.3830586,NA,Murphy: USA,5720,Gas,2180 S McKenzie St,Foley,AL,36535,,,,No,,(251) 971-2411,
-87.685801,30.382455,Supercenter,Walmart,0904,Gas,2200 S Mckenzie St,Foley,AL,36535,,,,No,,(251) 943-3400,
-85.7594711,34.4385519,NA,Murphy: USA,5811,Gas,1915 Glenn Blvd SW,Fort Payne,AL,35968,,,,No,,(256) 845-7728,
-85.760699,34.439762,Supercenter,Walmart,0691,Gas,2001 Glenn Blvd SW,Fort Payne,AL,35968,I-59,,,No, 218,(256) 845-3163,
-85.98755,34.01215,Supercenter,Walmart,0301,NA,340 E Meighan Blvd,Gadsden,AL,35903,,,,No,,(256) 547-2637,
-86.823856,33.647208,Supercenter,Walmart,1201,Gas/Diesel,890 Odum Rd,Gardendale,AL,35071,I-65,,,No, 271,(205) 631-8110,
-86.8244629,33.6484947,NA,Murphy: USA,6891,Gas/Diesel,916 Odum Rd,Gardendale,AL,35071,I-65,,,No,271,(205) 608-3699,
-85.89959,31.051002,Regular,Walmart,1063,NA,1608 W Magnolia Ave,Geneva,AL,36340,I-65,,,No,Exit 130,(334) 684-3681,
-86.646321,31.849455,Supercenter,Walmart,1462,Gas/Diesel,501 Willow Lane,Greenville,AL,36037,I-65,,,No,Exit 130,(334) 382-2655,
-86.6433556,31.851503,NA,Murphy: USA,7087,Gas/Diesel,701 Willow Lane,Greenville,AL,36037,I-65,,,No, 130,(334) 382-0036,
-87.6868878,30.264755,NA,Murphy: USA,7079,Gas/Diesel,140 E Fort Morgan Rd,Gulf Shores,AL,36542,,,,No,,(251) 540-7602,
-87.686455,30.266434,Supercenter,Walmart,2748,Gas/Diesel,170 E Fort Morgan Rd,Gulf Shores,AL,36542,,,,No,,(251) 968-5871,Yes
-86.27847,34.300251,Supercenter,Walmart,0681,Gas,11697 Hwy 431,Guntersville,AL,35976,,,,No,,(256) 878-0685,
-86.2794189,34.3012543,NA,Murphy: USA,5786,Gas,11705 Hwy 431,Guntersville,AL,35976,,,,No,,(256) 891-1099,
-87.598816,34.239773,Supercenter,Walmart,0409,NA,42466 Hwy 195,Haleyville,AL,35565,,,,No,,(205) 486-9498,
-87.990125,34.119895,Supercenter,Walmart,1100,NA,1706 Military St. S,Hamilton,AL,35570,,,,No,,(205) 921-3090,
-86.948615,34.453313,Supercenter,Walmart,1124,Gas/Diesel,1201 Hwy 31 NW,Hartselle,AL,35640,,,,No,,(256) 773-1675,
-86.9476242,34.4543839,NA,Murphy: USA,6599,Gas/Diesel,1213 Hwy 31 NW,Hartselle,AL,35640,,,,No,,(256) 773-0420,
-86.57179,34.943577,Supercenter,Walmart,6878,Gas,14595 N Hwy 231/432 N,Hazel Green,AL,35750,,,,No,,(256) 828-0486,
-86.851306,33.27955,Neighborhood Market,Walmart,4189,NA,335 Helena Market Pl,Helena,AL,35080 .,,,,No,,(205) 624-1640,Yes
-86.819967,33.448284,NA,Sam's Club,8247,Gas,201 Lakeshore Pkwy,Homewood,AL,35209,,,,No,,(205) 941-3326,
-86.821477,33.447699,Supercenter,Walmart,1481,NA,209 Lakeshore Pkwy,Homewood,AL,35209,I-65,,,No, 255,(205) 945-8692,
-86.82546,33.362717,Supercenter,Walmart,1229,NA,2780 John Hawkins Pkwy,Hoover,AL,35244,I-459,,,No, 10,(205) 733-0303,Yes
-86.808073,33.373856,NA,Sam's Club,4724,Gas,3053 John Hawkins Pkwy,Hoover,AL,35244,I-459,,,No, 10,(205) 982-0596,
-86.798124,33.393198,Neighborhood Market,Walmart,3184,NA,3320 Lorna Rd,Hoover,AL,35216,,,,No,,(205) 909-4306,Yes
-86.968613,33.458664,Supercenter,Walmart,4497,NA,1007 Red Farmer Dr,Hueytown,AL,35023,,,,No,,(205) 744-9997,
-86.597427,34.786949,Pharmacy/Clinic ,Walmart,7254,NA,1 Cottonwood Dr NW,Huntsville,AL,35810,,,,No,,(256) 746-1638,
-86.5701447,34.6158867,NA,Murphy: USA,5667,Gas,11610 Memorial Pkwy S,Huntsville,AL,35803,,,,No,,(256) 880-5180,
-86.569318,34.615841,Supercenter,Walmart,0434,Gas,11610 Memorial Pkwy S,Huntsville,AL,35803,,,,No,,(256) 881-0581,
-86.5933075,34.7632942,NA,Murphy: USA,7029,Gas/Diesel,2150 Sparkman Dr NW,Huntsville,AL,35810,,,,No,,(256) 851-1674,
-86.492693,34.818134,Supercenter,Walmart,7324,NA,2165 Winchester Rd NE,Huntsville,AL,35811,,,,No,,(256) 716-6773,
-86.592125,34.764268,Supercenter,Walmart,0433,Gas/Diesel,2200 Sparkman Dr,Huntsville,AL,35810,,,,No,,(256) 852-2236,Yes
-86.571387,34.642811,NA,Sam's Club,8107,Gas,2235 National Blvd,Huntsville,AL,35810,,,,No,,(256) 881-8186,
-86.62637,34.711967,Neighborhood Market,Walmart,5925,Gas/Diesel,2305 Jordan Ln SW,Huntsville,AL,35805,,,,No,,(256) 755-3080,
-86.585134,34.702931,Supercenter,Walmart,0375,NA,3031 Memorial Pkwy SW,Huntsville,AL,35801,,,,No,,(256) 536-2870,Yes
-86.633926,34.749954,Neighborhood Market,Walmart,3185,NA,4226 Oakwood Ave NW,Huntsville,AL,35810,,,,No,,(256) 361-2083,Yes
-86.658454,34.736543,NA,Sam's Club,4776,Gas,5651 Holmes AvE NW,Huntsville,AL,35816,,,,No,,(256) 837-7323,
-86.675545,34.745947,Supercenter,Walmart,0332,NA,6140a University Dr,Huntsville,AL,35806,,,,No,,(256) 837-7272,
-86.541176,34.647125,Neighborhood Market,Walmart,5716,NA,9020 Bailey Cove Rd SE,Huntsville,AL,35802,,,,No,,(256) 970-6552,
-86.720333,33.528144,Supercenter,Walmart,1711,NA,1600 Montclair Rd,Irondale,AL,35210,I-20,,,No, 132,(205) 956-0416,
-87.8762598,31.5568831,NA,Murphy: USA,5815,Gas,115 Walker Springs Rd,Jackson,AL,36545,,,,No,,(251) 246-1354,
-87.8761,31.55913,Supercenter,Walmart,2760,Gas,4206 College Ave,Jackson,AL,36545,,,,No,,(251) 247-7101,
-85.7641144,33.788311,NA,Murphy: USA,7170,Gas/Diesel,1625 Pelham Rd S,Jacksonville,AL,36265,,,,No,,(256) 435-4036,
-85.764007,33.788231,Supercenter,Walmart,0300,Gas/Diesel,1625 Pelham Rd S,Jacksonville,AL,36265,,,,No,,(256) 435-8100,
-87.254556,33.843721,Supercenter,Walmart,0287,NA,1801 Hwy 78 E,Jasper,AL,35501,,,,No,,(205) 384-1100,
-86.519748,33.562104,Supercenter,Walmart,0562,Gas/Diesel,8551 Whitfield Ave,Leeds,AL,35094,I-20,,,No, 144,(205) 699-0701,
-86.521053,33.562292,NA,Murphy: USA,7555,Gas/Diesel,8559 Whitfield Ave,Leeds,AL,35094,I-20,,,No, 144,(305) 699-7005,
-86.74917,34.79353,Neighborhood Market,Walmart,7342,NA,7140 Wall Triana Hwy,Madison,AL,35757,,,,No,,(256) 970-6193,Yes
-86.7302,34.756393,Pickup & Fuel ,Walmart,5746,Gas,7520 Hwy 72 W,Madison,AL,35758,,,,No,,(256) 721-6402,
-86.773289,34.749878,Supercenter,Walmart,5703,NA,8580 Hwy 72,Madison,AL,35758,,,,No,,(256) 716-6951,
-86.740257,34.681766,NA,Murphy: USA,5721,Gas,8600 Madison Blvd,Madison,AL,35758,I-565,,,No, 9,(256) 464-3955,
-86.740697,34.682772,Supercenter,Walmart,2690,Gas,8650 Madison Blvd,Madison,AL,35758,I-565,,,No, 9,(256) 461-7403,
-86.399215,32.494634,Supercenter,Walmart,4318,NA,145 Kelley Blvd,Millbrook,AL,36054,I-65,,,No, 181,(334) 285-0311,Yes
-86.3062676,32.331387,NA,Murphy: USA,7502,Gas/Diesel,35 Kelley Blvd,Millbrook,AL,36054,,,,No,,(334) 285-5437,
-88.125032,30.683536,Supercenter,Walmart,0991,NA,101 S Beltline Hwy,Mobile,AL,36606,,,,No,,(251) 471-1105,Yes
-88.16761,30.713487,Neighborhood Market,Walmart,4210,NA,1300 N University Blvd,Mobile,AL,36618,,,,No,,(251) 586-6227,Yes
-88.161798,30.649465,Neighborhood Market,Walmart,5098,Gas/Diesel,1970 S University Blvd,Mobile,AL,36609,,,,No,,(251) 666-3373,Yes
-88.1613223,30.6495582,NA,Murphy: USA,6880,Gas/Diesel,1970 S University Blvd,Mobile,AL,36609,,,,No,,(251) 665-2380,Yes
-88.247149,30.639031,Supercenter,Walmart,4581,NA,2500 Dawes Rd,Mobile,AL,36695,,,,No,,(251) 633-6023,
-88.103716,30.668953,Neighborhood Market,Walmart,5740,NA,2570 Government Blvd,Mobile,AL,36606,,,,No,,(251) 586-6481,Yes
-88.162626,30.594576,Supercenter,Walmart,0866,NA,5245 Rangeline Service Rd,Mobile,AL,36619,,,,No,,(251) 666-7972,Yes
-88.123167,30.678167,NA,Sam's Club,8102,Gas,601 E,Mobile,AL,36606,I-65,,,Yes, 3,(251) 479-1346,
-88.189511,30.640966,Neighborhood Market,Walmart,4657,NA,6350 Cottage Hill Rd,Mobile,AL,36609,,,,No,,(251) 661-1717,Yes
-88.194899,30.679921,Neighborhood Market,Walmart,4648,NA,6575 Airport Blvd,Mobile,AL,36608,,,,No,,(2510 370-9845,Yes
-88.223742,30.677928,Supercenter,Walmart,0853,NA,685 Schillinger Rd,Mobile,AL,36695,,,,No,,(251) 633-2211,
-87.33097,31.48112,Supercenter,Walmart,1493,NA,3371 S Alabama Ave,Monroeville,AL,36460,,,,No,,(251) 575-3333,
-86.1339951,32.3571968,NA,Murphy: USA,7501,Gas/Diesel,10620 Chantilly Pkwy,Montgomery,AL,36117,I-85,,,No, 11,(334) 277-5017,
-86.133813,32.355393,Supercenter,Walmart,4407,Gas/Diesel,10710 Chantilly Pkwy,Montgomery,AL,36117,I-85,,,No, 11,(334) 272-7377,Yes
-86.214737,32.465771,NA,Sam's Club,8106,Gas,1080 Eastern Blvd,Montgomery,AL,36117,I-85,,,No, 6,(334) 272-0277,
-86.267625,32.403706,Neighborhood Market,Walmart,4672,NA,1600 Federal Dr,Montgomery,AL,36109,,,,No,,(334) 777-5865,
-86.23261,32.326823,Supercenter,Walmart,0930,NA,3801 Eastern Blvd,Montgomery,AL,36116,,,,No,,(334) 284-4181,
-86.232821,32.327816,NA,Murphy: USA,7556,Gas/Diesel,3809 Eastern Blvd,Montgomery,AL,36116,,,,No,,(334) 244-9168,
-86.186348,32.3830223,NA,Murphy: USA,6728,Gas/Diesel,6401 Atlanta Hwy,Montgomery,AL,36117,,,,No,,(334) 396-8749,
-86.184597,32.384223,Supercenter,Walmart,0938,Gas/Diesel,6495 Atlanta Hwy,Montgomery,AL,36117,,,,No,,(334) 272-0263,
-86.175159,32.338768,Neighborhood Market,Walmart,4691,NA,8035 Vaughn Rd,Montgomery,AL,36116,,,,No,,(334) 777-5881,
-86.2709134,32.37113,NA,Murphy: USA,7339,Gas/Diesel,805 Ann St,Montgomery,AL,36107,I-85,,,No, 3,(334) 834-9674,
-86.269382,32.370347,Supercenter,Walmart,5348,Gas/Diesel,851 Ann St,Montgomery,AL,36107,I-85,,,No, 3,(334) 223-7177,
-87.3112717,34.66576,NA,Murphy: USA,7571,Gas/Diesel,15441 Hwy 24,Moulton,AL,35650,,,,No,,(256) 974-6031,
-87.276973,34.494578,Supercenter,Walmart,0394,Gas/Diesel,15445 Hwy 24,Moulton,AL,35650,,,,No,,(256) 974-1128,Yes
-87.673706,34.746723,Supercenter,Walmart,0660,Gas,517 W Avalon Ave,Muscle Shoals,AL,35661,,,,No,,(256) 381-0987,
-87.7119651,34.7453778,NA,Murphy: USA,5368,Gas,571 W Avalon Ave,Muscle Shoals,AL,35661,,,,No,,(256) 314-4620,
-87.573538,33.23909,Neighborhood Market,Walmart,5248,NA,1660 McFarland Blvd,Northport,AL,35476,,,,No,,(205) 861-1263,
-87.6131363,33.2358665,NA,Murphy: USA,5593,Gas,5700 McFarland Blvd,Northport,AL,35476,,,,No,,(205) 339-3876,
-87.61419,33.236196,Supercenter,Walmart,2306,Gas,5710 Mcfarland Blvd,Northport,AL,35476,,,,No,,(205) 333-7820,Yes
-86.447084,33.971806,Supercenter,Walmart,0315,NA,2453 2nd Ave E,Oneonta,AL,35121,,,,No,,(205) 625-6474,Yes
-85.421653,32.637052,Supercenter,Walmart,0355,Gas/Diesel,2900 Pepperell Pkwy,Opelika,AL,36801,I-85,,,No, 58,(334) 745-9333,
-85.4218246,32.6354134,NA,Murphy: USA,6782,Gas/Diesel,2950 Pepperell Pkwy,Opelika,AL,36801,I-85,,,No, 58,(334) 745-2266,
-87.593859,30.268534,Neighborhood Market,Walmart,5653,NA,25241 Perdido Blvd,Orange Beach,AL,36561,,,,No,,(251) 974-1810,
-86.485785,34.658484,Supercenter,Walmart,5197,Gas/Diesel,330 Sutton Rd,Owens Cross Roads,AL,35763,,,,No,,(256) 534-4140,
-86.4855713,34.6599354,NA,Murphy: USA,7262,Gas/Diesel,386 Sutton Rd,Owens Cross Roads,AL,35763,,,,No,,(256) 533-1313,
-85.776366,33.610335,NA,Sam's Club,4836,Gas/Diesel,1900 Oxford Exchange Blvd,Oxford,AL,36203,I-20,,,No, 188,(256) 342-0125,
-85.834571,33.600784,NA,Murphy: USA,6758,Gas/Diesel,45 Plaza Lane,Oxford,AL,36203,I-20,,,No, 185,(256) 831-2654,
-85.833028,33.599795,Supercenter,Walmart,0809,Gas/Diesel,92 Plaza Lane,Oxford,AL,36203,I-20,,,No, 185,(256) 835-4701,
-85.650922,31.44433,Supercenter,Walmart,0740,Gas/Diesel,1537 S Hwy 231,Ozark,AL,36360,,,,No,,(334) 774-0272,Yes
-85.6507927,31.4433707,NA,Murphy: USA,6885,Gas/Diesel,1579 S Hwy 231,Ozark,AL,36360,,,,No,,(334) 774-2558,
-86.791032,33.339511,Supercenter,Walmart,5262,Gas/Diesel,2181 Pelham Pkwy,Pelham,AL,35124,I-65,,,No, 246,(205) 987-0108,
-86.792188,33.3384304,NA,Murphy: USA,7051,Gas/Diesel,2191 Pelham Pkwy,Pelham,AL,35124,I-65,,,No, 246,(205) 739-0051,
-86.2799136,33.6091357,NA,Murphy: USA,6952,Gas/Diesel,145 Vaughan Lane,Pell City,AL,35125,I-20,,,No, 158,(205) 338-1106,
-86.278017,33.609551,Supercenter,Walmart,5113,Gas/Diesel,165 Vaughan Lane,Pell City,AL,35125,I-20,,,No, 158,(205) 338-5300,
-85.043407,32.500236,Supercenter,Walmart,1284,NA,3700 Hwy 280/431 N ,Phenix City,AL,36867,,,,No,,(334) 291-1700,
-85.076644,32.467116,Neighborhood Market,Walmart,5903,NA,3864 Hwy 80 W,Phenix City,AL,36870,,,,No,,(334) 408-6069,
-86.416339,32.462164,Supercenter,Walmart,0483,NA,1903 Cobbs Ford Rd,Prattville,AL,36066,I-65,,,No, 181,(334) 361-2135,
-85.365101,33.164394,Supercenter,Walmart,0863,Gas/Diesel,4180 Hwy 431,Roanoke,AL,36274,,,,No,,(334) 863-2147,
-85.3668956,33.1637831,NA,Murphy: USA,7030,Gas/Diesel,4214 Hwy 431,Roanoke,AL,36274,,,,No,,(334) 863-6218,
-87.710445,30.532051,Supercenter,Walmart,6173,NA,21141 Hwy 59,Robertsdale,AL,36567,,,,No,,(251) 947-4424,
-87.726164,34.4943029,NA,Murphy: USA,7171,Gas/Diesel,13669 Hwy 43,Russellville,AL,35653,,,,No,,(256) 332-9948,
-87.728099,34.494889,Supercenter,Walmart,0403,Gas/Diesel,13675 Hwy 43,Russellville,AL,35653,,,,No,,(256) 332-7382,
-88.0964661,30.8010464,NA,Murphy: USA,6723,Gas/Diesel,1091 Industrial Pkwy,Saraland,AL,36571,,,,No,,(251) 679-7067,
-88.096974,30.800588,Supercenter,Walmart,1212,Gas/Diesel,1095 Industrial Pkwy,Saraland,AL,36571,,,,No,,(251) 675-8000,
-86.006994,34.66849,Supercenter,Walmart,0712,NA,24833 John T Reid Prkwy,Scottsboro,AL,35768,,,,No,,(256) 574-1126,
-87.0221939,32.4435463,NA,Murphy: USA,5692,Gas,1501 Hwy 14 E,Selma,AL,36701,,,,No,,(334) 877-4910,
-87.012864,32.432916,Supercenter,Walmart,0700,Gas,1501 Hwy 14 E,Selma,AL,36701,,,,No,,(334) 874-7793,
-88.229125,30.763425,NA,Murphy: USA,6987,Gas/Diesel,7855 Moffett Rd,Semmes,AL,36575,,,,No,,(251) 645-4144,
-88.228359,30.762146,Supercenter,Walmart,5174,Gas/Diesel,7855 Moffett Rd,Semmes,AL,36575,,,,No,,(251) 645-8224,Yes
-86.4309816,33.7779801,NA,Murphy: USA,7507,Gas/Diesel,138 Springville Station Blvd,Springville,AL,35146,I-59,,,No, 156,(205) 467-3913,
-86.432585,33.778733,Supercenter,Walmart,3386,Gas/Diesel,160 Springville Station Blvd,Springville,AL,35146,I-59,,,No, 156,(205) 467-6656,
-87.042126,33.743823,NA,Murphy: USA,6839,Gas/Diesel,670 Hwy 78,Sumiton,AL,35148,,,,No,,(205) 648-1689,
-87.042151,33.744594,Supercenter,Walmart,2723,Gas/Diesel,690 Hwy 78,Sumiton,AL,35148,,,,No,,(205) 648-4100,Yes
-86.286284,33.175291,Supercenter,Walmart,0730,NA,41301 Hwy 280,Sylacauga,AL,35150,,,,No,,(256) 245-0356,
-86.0825171,33.4385332,NA,Murphy: USA,7071,Gas/Diesel,210 Haynes St,Talladega,AL,35160,,,,No,,(256) 315-0064,
-86.081078,33.438168,Supercenter,Walmart,0432,Gas/Diesel,214 Haynes St,Talladega,AL,35160,,,,No,,(256) 761-1681,
-85.932116,32.565646,Supercenter,Walmart,1057,NA,2190 Gilmer Ave,Tallassee,AL,36078,,,,No,,(334) 283-6841,
-88.214839,30.562893,Neighborhood Market,Walmart,5744,NA,7320 Theodore Dawes Rd,Theodore,AL,36582,I-10,,,No, 13,(251) 370-1723,
-87.738488,31.939513,Supercenter,Walmart,1174,Gas,34301 Hwy 43,Thomasville,AL,36784,,,,No,,(334) 636-0219,
-87.737155,31.9398623,NA,Murphy: USA,5702,Gas,34321 Hwy 43,Thomasville,AL,36784,,,,No,,(334) 636-1161,
-85.9412578,31.7790142,NA,Murphy: USA,5743,Gas,1418 Hwy 231 S,Troy,AL,36081,,,,No,,(334) 566-3161,
-85.939333,31.779816,Supercenter,Walmart,0723,Gas,1420 Hwy 231 S,Troy,AL,36081,,,,No,,(334) 566-8012,
-87.520578,33.166096,NA,Sam's Club,6435,Gas,1401 Skyland Blvd E,Tuscaloosa,AL,35405,I-20,I-59,,No, 73,(205) 750-8559,
-87.518398,33.166167,Supercenter,Walmart,0715,NA,1501 Skyland Blvd E,Tuscaloosa,AL,35405,I-20,I-59,,No, 73,(205) 750-0823,
-87.482802,33.169439,Neighborhood Market,Walmart,5256,NA,4201 Hargrove Rd,Tuscaloosa,AL,35405,I-20,,,No, 76,(205) 632-6205,
-85.17894,32.835856,Supercenter,Walmart,0733,Gas,3501 20th Ave,Valley,AL,36854,I-85,,,No, 79,(334) 768-2118,
-85.1774217,32.837597,NA,Murphy: USA,5732,Gas,3507 20th Ave,Valley,AL,36854,I-85,,,No, 79,(334) 768-0172,
-86.791267,33.428893,Neighborhood Market,Walmart,4580,NA,1300 Montgomery Hwy,Vestavia Hills,AL,35216,,,,No,,(205) 822-9994,Yes
-86.2144656,32.5073225,NA,Murphy: USA,6907,Gas/Diesel,4536 Hwy 231,Wetumpka,AL,36092,,,,No,,(334) 514-0714,
-86.213048,32.507263,Supercenter,Walmart,1101,Gas/Diesel,4538 Hwy 231,Wetumpka,AL,36092,,,,No,,(334) 567-3066,
-87.840515,33.936065,Supercenter,Walmart,0362,NA,2575 Hwy 43,Winfield,AL,35594,,,,No,,(205) 487-4359,
-94.229055,35.479555,Supercenter,Walmart,0358,Gas/Diesel,367 W Cherry St,Alma,AR,72921,I-40,,,No, 13,(479) 632-4585,
-94.2305908,35.4809608,NA,Murphy: USA,7330,Gas/Diesel,414 W Cherry St,Alma,AR,72921,I-40,,,No, 13,(479) 632-0558,
-93.095638,34.119748,Supercenter,Walmart,0318,NA,109 W P Malone Dr,Arkadelphia,AR,71923,I-30,,,No, 73,(870) 246-2459,
-91.6019386,36.2377951,NA,Murphy: USA,6800,Gas/Diesel,105 Hwy 62,Ash Flat,AR,72513,,,,No,,(870) 994-2110,
-91.5976,36.2373,Supercenter,Walmart,0160,Gas/Diesel,219 Hwy 412,Ash Flat,AR,72513,,,,No,,(870) 994-7520,
-94.109939,33.657415,Supercenter,Walmart,0133,NA,297 Hwy 32 Bypass E,Ashdown,AR,71822,,,,No,,(870) 898-5126,
-91.613873,35.763584,Supercenter,Walmart,0119,Gas/Diesel,3150 Harrison St,Batesville,AR,72501,,,,No,,(870) 793-9004,
-91.613151,35.764389,NA,Murphy: USA,7635,Gas/Diesel,3162 Harrison St,Batesville,AR,72501,,,,No,,(870) 793-6262,
-91.906522,35.066205,Supercenter,Walmart,4168,NA,2003 W Center St,Beebe,AR,72012,,,,No,,(501) 882-1017,
-92.5824738,34.5775719,NA,Murphy: USA,6801,Gas/Diesel,17305 I-30 Frontage Rd,Benton,AR,72015,I-30,,,No, 118,(501) 860-7838,
-92.58112,34.577409,Supercenter,Walmart,0085,Gas/Diesel,17309 I-30 Frontage Rd,Benton,AR,72015,I-30,,,No,Exit 118,(501) 860-6135,
-94.2211,36.388677,Neighborhood Market,Walmart,4376,NA,1400 N Walton Blvd,Bentonville,AR,72712,,,,No,,(479) 268-9829,Yes
-94.189842,36.371803,Neighborhood Market,Walmart,2586,NA,1703 E Central Ave,Bentonville,AR,72712,I-49,,,No, 88,(479) 418-0227,Yes
-94.208848,36.37315,Neighborhood Market,Walmart,3164,Gas,205 N Main,Bentonville,AR,72712,,,,No,,(479) 268-9244,Yes
-94.171438,36.352592,NA,Sam's Club,4969,Gas/Diesel,3500 SE Club Blvd,Bentonville,AR,72712,I-540,,,No, 86,(479) 621-5537,
-94.170857,36.354931,Neighborhood Market,Walmart,2741,NA,3510 SE 14th St,Bentonville,AR,72712,,,,No,,(479) 621-6450,Yes
-94.197232,36.334063,Neighborhood Market,Walmart,2685,NA,3701 SE Dobson Rd,Bentonville,AR,72712,I-49,,,No,Exit 85,(479) 273-3742,
-94.224004,36.367959,Supercenter,Walmart,0100,Gas/Diesel,406 S Walton Blvd,Bentonville,AR,72712,,,,No,,(479) 273-0060,
-94.219265,36.366974,Pharmacy/Clinic ,Walmart,2203,NA,702 SW 8th St,Bentonville,AR,72712,,,,No,,(479) 273-4941,
-94.222259,36.366355,NA,Murphy: USA,6519,Gas/Diesel,704 SW I St,Bentonville,AR,72712,,,,No,,(479) 273-3818,
-94.220336,36.335687,Neighborhood Market,Walmart,4686,NA,906 SW Regional Airport Blvd,Bentonville,AR,72712,,,,No,,(479) 268-7678,
-93.586135,36.376834,Supercenter,Walmart,0076,Gas,1000 W Trimble,Berryville,AR,72616,,,,No,,(870) 423-4636,
-93.5825166,36.3756432,NA,Murphy: USA,5734,Gas,1000 W Trimble,Berryville,AR,72616,,,,No,,(870) 423-5651,
-89.87208,35.930064,Supercenter,Walmart,0062,NA,3700 E Main St,Blytheville,AR,72315,I-55,,,No, 67,(870) 763-0440,
-93.90354,35.139755,Supercenter,Walmart,0055,NA,1400 E Main,Booneville,AR,72927,,,,No,,(479) 675-3688,
-92.494381,34.623271,Supercenter,Walmart,3230,Gas/Diesel,400 Bryant Ave,Bryant,AR,72022,I-30,,,No, 123,(501) 847-2857,
-92.4943672,34.6222691,NA,Murphy: USA,6672,Gas/Diesel,403 Bryant Ave,Bryant,AR,72022,I-30,,,No, 123,(501) 653-2129,
-92.00854,34.95301,Neighborhood Market,Walmart,6975,NA,1203 S Pine St,Cabot,AR,72023,,,,No,,(501) 725-3637,
-92.0373986,34.9789392,NA,Murphy: USA,6802,Gas/Diesel,208 S Rockwood,Cabot,AR,72023,,,,No,,(501) 843-1533,
-92.039528,34.976535,Supercenter,Walmart,2587,Gas/Diesel,304 S Rockwood,Cabot,AR,72023,,,,No,,(501) 941-5200,
-92.8429075,33.5648947,NA,Murphy: USA,7473,Gas/Diesel,940 California Ave SW,Camden,AR,71701,,,,No,,(870) 837-2798,
-92.836702,33.568107,Supercenter,Walmart,0171,Gas/Diesel,950 California Ave SW,Camden,AR,71701,,,,No,,(870) 836-8000,
-94.257085,36.358302,Neighborhood Market,Walmart,6953,NA,1800 E Centerton Blvd,Centerton,AR,72712 .,,,,No,,(479) 795-4100,Yes
-93.456613,35.4478383,NA,Murphy: USA,6729,Gas/Diesel,1228 Market St,Clarksville,AR,72830,,,,No,,(479) 754-8023,
-93.460696,35.449396,Supercenter,Walmart,0066,Gas/Diesel,230 Market St,Clarksville,AR,72830,I-40,,,No, 58,(479) 754-2046,
-92.4540024,35.5669937,NA,Murphy: USA,6678,Gas/Diesel,1964 Hwy 65 S,Clinton,AR,72031,,,,No,,(501) 745-3944,
-92.45352,35.566846,Supercenter,Walmart,0788,Gas/Diesel,1966 Hwy 65 S,Clinton,AR,72031,,,,No,,(501) 745-2498,
-92.438182,35.10855,Supercenter,Walmart,0005,Gas/Diesel,1155 Hwy 65 N,Conway,AR,72032,I-40,,,No, 125,(501) 329-0023,
-92.415845,35.062843,NA,Sam's Club,4749,Gas/Diesel,1250 S Amity Rd,Conway,AR,72032,I-40,,,No, 129,(501) 205-7465,
-92.4406285,35.1083867,NA,Murphy: USA,6739,Gas/Diesel,2164 Harkrider,Conway,AR,72032,,,,No,,(501) 336-8587,
-92.464225,35.092181,Neighborhood Market,Walmart,3168,NA,2550 Prince St,Conway,AR,72034,,,,No,,(501) 205-7262,Yes
-92.495394,35.072107,Supercenter,Walmart,2575,Gas/Diesel,3900 Dave Ward Dr,Conway,AR,72034,,,,No,,(501) 328-9570,
-92.496061,35.0710449,NA,Murphy: USA,6799,Gas/Diesel,3950 Dave Ward Dr,Conway,AR,72032,,,,No,,(501) 328-5535,
-90.595634,36.412104,Regular,Walmart,0235,NA,1900 W Main,Corning,AR,72422,,,,No,,(870) 857-6914,
-91.9415639,33.1380949,NA,Murphy: USA,7117,Gas/Diesel,908 Unity Rd,Crossett,AR,71635,,,,No,,(870) 364-2238,
-91.942048,33.136998,Supercenter,Walmart,0167,Gas/Diesel,910 Unity Rd,Crossett,AR,71635,,,,No,,(870) 364-2165,
-93.16397,35.2184793,NA,Murphy: USA,7540,Gas/Diesel,1126 N Hwy 7,Dardanelle,AR,72834,,,,No,,(479) 229-1495,
-93.165338,35.217849,Supercenter,Walmart,0296,Gas/Diesel,1172 N Hwy 7,Dardanelle,AR,72834,,,,No,,(479) 229-2502,
-94.318657,34.044242,Supercenter,Walmart,0279,Gas/Diesel,926 E Collin Raye Dr.,De Queen,AR,71832,,,,No,,(870) 642-2794,
-94.3181017,34.0454762,NA,Murphy: USA,7203,Gas/Diesel,928 E Collin Raye Dr,De Queen,AR,71832,,,,No,,(870) 642-2907,
-92.6658066,33.2404514,NA,Murphy: USA,7520,Gas/Diesel,2720 N W Ave,El Dorado,AR,71730,,,,No,,(870) 863-4427,
-92.667359,33.241791,Supercenter,Walmart,0530,Gas/Diesel,2730 N W Ave,El Dorado,AR,71730,,,,No,,(870) 862-2128,
-94.256132,36.037547,Neighborhood Market,Walmart,7242,NA,367 W Main St,Farmington,AR,72730,,,,No,,(479) 267-0040,Yes
-94.123054,36.089114,Neighborhood Market,Walmart,2745,NA,2690 E Citizens Dr,Fayetteville,AR,72703,,,,No,,(479) 571-6670,Yes
-94.201064,36.05082,Supercenter,Walmart,0144,Gas,2875 W 6th St,Fayetteville,AR,72704,I-540,,,No, 62,(479) 582-0428,
-94.2025857,36.0517256,NA,Murphy: USA,6541,Gas,2985 W 6th St,Fayetteville,AR,72704,I-540,,,No, 62,(479) 582-9044,
-94.182382,36.108134,NA,Sam's Club,8209,Gas/Diesel,3081 N Hwy 112,Fayetteville,AR,72704,I-540,,,No, 66,(479) 587-1840,
-94.20988,36.076839,Neighborhood Market,Walmart,5737,NA,3475 W Black Forest Dr,Fayetteville,AR,72704,I-70,,,No,Exit 20,(479) 442-1778,
-94.15143,36.122421,Supercenter,Walmart,0359,Gas/Diesel,3919 N Mall Ave,Fayetteville,AR,72703,,,,No,,(479) 443-7679,Yes
-94.1501617,36.1231651,NA,Murphy: USA,7123,Gas/Diesel,3951 N Mall Ave,Fayetteville,AR,72703,,,,No,,(479) 444-8237,
-94.174862,36.072443,Pharmacy/Clinic ,Walmart,2997,NA,616 N Garland Ave,Fayetteville,AR,72701,,,,No,,(479) 443-1588,
-94.170297,36.056856,Neighborhood Market,Walmart,4516,NA,660 MLK Jr Blvd,Fayetteville,AR,72701,,,,No,,(479) 435-2009,
-92.6037,36.275197,Supercenter,Walmart,1147,Gas/Diesel,168 Walmart Dr,Flippin,AR,72634,,,,No,,(870) 453-2211,
-92.6016697,36.2753414,NA,Murphy: USA,7184,Gas/Diesel,49 Walmart Dr,Flippin,AR,72634,,,,No,,(870) 453-6010,
-92.435532,33.820904,Regular,Walmart,0339,NA,1123 Hwy 79 / 167 Bypass,Fordyce,AR,71742,,,,No,,(870) 352-5167,
-90.793322,35.0289996,Supercenter,Walmart,0091,Gas/Diesel,205 Deadrick Rd,Forrest City,AR,72335,I-40,,,No, 241,(870) 633-0021,
-90.7914743,35.0298482,NA,Murphy: USA,6523,Gas/Diesel,207 Deadrick Rd,Forrest City,AR,72335,I-40,,,No, 241,(870) 633-7393,
-94.364871,35.399707,Supercenter,Walmart,0388,Gas/Diesel,2100 N 62nd St,Fort Smith,AR,72904,I-540,,,No, 5,(479) 785-5964,
-94.3653183,35.4008408,NA,Murphy: USA,7447,Gas/Diesel,2200 N 62nd St,Fort Smith,AR,72904,,,,No,,(479) 784-3377,
-94.407601,35.328885,Supercenter,Walmart,0125,Gas,2425 S Zero St,Fort Smith,AR,72901,,,,No,,(479) 646-6382,Yes
-94.37788,35.364696,Neighborhood Market,Walmart,2744,NA,4900 Rogers Ave,Fort Smith,AR,72903,I-540,,,No, 8,(479) 484-9122,Yes
-94.4092407,35.3291245,NA,Murphy: USA,5814,Gas/Diesel,5501 S 24th St,Fort Smith,AR,72901,,,,No,,(479) 649-8856,
-94.348101,35.349821,NA,Sam's Club,8134,Gas,7700 Rogers Ave,Fort Smith,AR,72903,,,,No,,(479) 484-5454,
-94.338832,35.349231,Supercenter,Walmart,0141,Gas/Diesel,8301 Rogers Ave,Fort Smith,AR,72903,I-540,,,No, 88,(479) 484-5205,
-94.339372,35.34797,NA,Murphy: USA,7133,Gas/Diesel,8303 Rogers Ave,Fort Smith,AR,72903,,,,No,,(479) 484-5205,
-94.392915,35.303397,Neighborhood Market,Walmart,4579,NA,8600 Hwy 71 S,Fort Smith,AR,72908,I-540,,,No, 12,(479) 289-6896,
-92.388518,35.226028,Neighborhood Market,Walmart,7317,NA,75 S Broadview St,Greenbrier,AR,72058,,,,No,,(501) 287-6001,Yes
-94.2975616,35.2208099,NA,Murphy: USA,6896,Gas/Diesel,441 Liberty Dr,Greenwood,AR,72936,,,,No,,(479) 996-5443,
-94.2965,35.2207,Supercenter,Walmart,3231,Gas/Diesel,551 Liberty Dr,Greenwood,AR,72936,,,,No,,(479) 996-8500,
-93.138559,36.266594,Supercenter,Walmart,0002,Gas,161 N Walmart Dr,Harrison,AR,72601,,,,No,,(870) 365-8400,
-93.1385634,36.2667643,NA,Murphy: USA,5739,Gas,179 N Walmart Dr,Harrison,AR,72601,,,,No,,(870) 743-6570,
-93.844546,35.503748,Supercenter,Walmart,0281,Gas/Diesel,1500 Hwy 25b N,Heber Springs,AR,72543,,,,No,,(501) 362-8188,
-92.0294143,35.5073994,NA,Murphy: USA,6803,Gas/Diesel,1510 Hwy 25 B N,Heber Springs,AR,72543,,,,No,,(501) 362-1958,
-93.614339,33.681734,Supercenter,Walmart,1065,Gas/Diesel,2400 N Hervey St,Hope,AR,71801,I-30,,,No, 30,(870) 777-5500,
-93.613533,33.6833303,NA,Murphy: USA,6673,Gas/Diesel,2402 N Hervey St,Hope,AR,71801,I-30,,,No, 30,(870) 777-9020,
-93.056726,34.632255,Supercenter,Walmart,5433,Gas/Diesel,3604 N Hwy 7,Hot Springs Village,AR,71909,,,,No,,(501) 318-0185,
-93.0615005,34.4562454,NA,Murphy: USA,6709,Gas/Diesel,108 Buena Vista,Hot Springs,AR,71913,,,,No,,(501) 520-4899,
-93.070226,34.469398,NA,Sam's Club,4825,Gas/Diesel,1368 Higdon Ferry Rd,Hot Springs,AR,71913,,,,No,,(501) 625-7201,
-93.039655,34.494125,Neighborhood Market,Walmart,5790,NA,1544 Malvern Ave,Hot Springs,AR,71901,,,,No,,(501) 262-7520,
-93.089252,34.491974,Supercenter,Walmart,0052,Gas/Diesel,1601 Albert Pike Rd,Hot Springs,AR,71913,,,,No,,(501) 624-2498,Yes
-93.0900726,34.4914932,NA,Murphy: USA,7134,Gas/Diesel,1605 Albert Pike Rd,Hot Springs,AR,71913,,,,No,,(501) 623-8325,
-93.141375,34.467676,Neighborhood Market,Walmart,5789,NA,1640 Airport Rd,Hot Springs,AR,71913,,,,No,,(501) 262-7509,
-93.059162,34.6321202,NA,Murphy: USA,7116,Gas/Diesel,3608 N Hwy 7,Hot Springs,AR,71909,,,,No,,(501) 623-7171,
-93.061684,34.454755,Supercenter,Walmart,0261,Gas/Diesel,4019 Central Ave,Hot Springs,AR,71913,,,,No,,(501) 623-7605,Yes
-93.716824,36.113275,Supercenter,Walmart,0373,NA,157 Gary Hatfield Hwy,Huntsville,AR,72740,,,,No,,(479) 738-2001,
-92.111251,34.884897,Supercenter,Walmart,0024,NA,2000 John Harden Dr,Jacksonville,AR,72076,,,,No,,(501) 985-8731,
-90.6857529,35.8209152,NA,Murphy: USA,5807,Gas,1807 E Highland Dr,Jonesboro,AR,72401,I-555,,,No, 44,(870) 802-1668,
-90.685329,35.820107,Supercenter,Walmart,0045,Gas,1815 E Highland Dr,Jonesboro,AR,72401,I-555,,,No, 44,(870) 931-5001,
-90.7309509,35.8157368,NA,Murphy: USA,7135,Gas/Diesel,1905 W Parker Rd,Jonesboro,AR,72403,,,,No,,(870) 932-2940,
-90.732933,35.816092,Supercenter,Walmart,0128,Gas/Diesel,1911 W Parker Rd,Jonesboro,AR,72404,,,,No,,(870) 972-6350,
-90.680091,35.815398,NA,Sam's Club,6377,Gas/Diesel,2405 S Caraway Rd,Jonesboro,AR,72401,,,,No,,(870) 972-1644,
-90.673077,35.825848,Neighborhood Market,Walmart,6943,NA,2811 Creek Dr,Jonesboro,AR,72401,,,,No,,(870) 203-7009,Yes
-90.698891,35.804458,Neighborhood Market,Walmart,6876,NA,3319 Harrisburg Rd,Jonesboro,AR,72404,I-555,,,No, 44,(870) 203-7018,Yes
-92.487347,34.809573,Supercenter,Walmart,5244,Gas/Diesel,19301 Cantrell Rd,Little Rock,AR,72223,,,,No,,(501) 868-4659,Yes
-92.489153,34.8084017,NA,Murphy: USA,7102,Gas/Diesel,23800 Chenal Pkwy,Little Rock,AR,72223,,,,No,,(501) 868-7424,
-92.39756,34.728968,Supercenter,Walmart,0126,NA,2700 S Shackleford Rd,Little Rock,AR,72205,,,,No,,(501) 223-0604,
-92.409598,34.748207,Supercenter,Walmart,5706,NA,700 S Bowman Rd,Little Rock,AR,72211,,,,No,,(501) 223-9952,Yes
-92.376889,34.668366,Supercenter,Walmart,0124,NA,8801 Baseline Rd,Little Rock,AR,72209,I-30,,,No, 130,(501) 565-0274,Yes
-92.40927,34.74675,NA,Sam's Club,8104,Gas,900 S Bowman Rd,Little Rock,AR,72211,I-430,,,No, 8,(501) 227-7119,
-91.892926,34.805371,Supercenter,Walmart,0169,NA,322 Brownsville Loop,Lonoke,AR,72086,I-40,,,No, 175,(501) 676-3191,
-93.214938,33.2735552,NA,Murphy: USA,6925,Gas/Diesel,58 Hwy 79 N,Magnolia,AR,71753,,,,No,,(870) 901-6010,
-93.214039,33.275921,Supercenter,Walmart,0083,Gas/Diesel,60 Hwy 79 N,Magnolia,AR,71753,,,,No,,(870) 234-7800,
-92.8298552,34.3910151,NA,Murphy: USA,7185,Gas/Diesel,1410 Rivercreek Dr ,Malvern,AR,72104,,,,No,,(501) 337-4632,
-92.831622,34.390712,Supercenter,Walmart,0127,Gas/Diesel,1910 MLK Blvd,Malvern,AR,72104,I-30,,,No, 98,(501) 337-9485,Yes
-90.189659,35.202749,Neighborhood Market,Walmart,4654,NA,2100 Hwy 77,Marion,AR,72364,I-40,I-55,,No, 82/77,(870) 394-7308,
-91.382601,33.603935,Regular,Walmart,0289,NA,Hwy 65 S,Mcgehee,AR,71654,,,,No,,(870) 222-4184,
-94.225973,34.587399,Supercenter,Walmart,0067,Gas/Diesel,600 Hwy 71 N,Mena,AR,71953,,,,No,,(479) 394-0025,
-94.22577,34.5863087,NA,Murphy: USA,6503,Gas/Diesel,602 Hwy 71 N,Mena,AR,71953,,,,No,,(479) 243-9178,
-91.801678,33.6360973,NA,Murphy: USA,5735,Gas,425 Hwy 425 N,Monticello,AR,71655,,,,No,,(870) 367-0739,
-91.803881,33.635713,Supercenter,Walmart,0348,Gas,427 Hwy 425 N,Monticello,AR,71655,,,,No,,(870) 367-0409,
-92.7244644,35.1689644,NA,Murphy: USA,6535,Gas/Diesel,101 Walmart Dr ,Morrilton,AR,72110,,,,No,,(501) 354-0423,
-92.725648,35.168747,Supercenter,Walmart,0008,Gas,1621 N Business 9,Morrilton,AR,72110,I-40,,,No, 107,(501) 354-0290,
-92.3411279,36.3572896,NA,Murphy: USA,6772,Gas/Diesel,50 Walmart Dr ,Mountain Home,AR,72653,,,,No,,(870) 492-5550,
-92.341154,36.357581,Supercenter,Walmart,0011,Gas/Diesel,65 Walmart Dr,Mountain Home,AR,72653,,,,No,,(870) 492-9299,
-92.1043083,35.8684181,NA,Murphy: USA,7253,Gas/Diesel,407 Sylamore Ave,Mountain View,AR,72560,,,,No,,(870) 269-7430,
-92.102447,35.867555,Supercenter,Walmart,1114,Gas/Diesel,409 Sylamore Ave,Mountain View,AR,72560,,,,No,,(870) 269-4395,
-93.8553556,33.9242148,NA,Murphy: USA,6955,Gas/Diesel,1700 S 4th St,Nashville,AR,71852,,,,No,,(870) 845-4784,
-93.856603,33.924748,Supercenter,Walmart,0033,Gas/Diesel,1710 S 4th St,Nashville,AR,71852,,,,No,,(870) 845-1881,
-91.253489,35.617243,Supercenter,Walmart,0018,NA,1211 Arkansas 367,Newport,AR,72112,,,,No,,(870) 523-2500,
-92.3920999,34.8282541,NA,Murphy: USA,7466,Gas/Diesel,13201 Crystal Hill Rd,North Little Rock,AR,72113,,,,No,,(501) 851-1724,
-92.393695,34.831608,Supercenter,Walmart,4460,Gas,12001 Maumelle Blvd,North Little Rock,AR,72113,,,,No,,(501) 851-2798,Yes
-92.2162552,34.7879143,NA,Murphy: USA,7031,Gas/Diesel,4448 E McCain Blvd,North Little Rock,AR,72117,I-40,,,No, 156,(501) 945-2266,
-92.214805,34.787428,Supercenter,Walmart,1105,Gas/Diesel,4450 E Mccain Blvd,North Little Rock,AR,72117,I-40,,,No, 156,(501) 945-2700,
-92.207657,34.805976,NA,Sam's Club,8266,Gas,5600 Landers Rd,North Little Rock,AR,72117,,,,No,,(501) 945-2167,
-90.013016,35.699075,Supercenter,Walmart,0074,NA,2720 W Keiser Ave,Osceola,AR,72370,,,,No,,(870) 563-3251,
-93.844417,35.503679,Regular,Walmart,0209,NA,1516 N 18th St,Ozark,AR,72949,I-40,,,No, 35,(479) 667-2143,
-90.521967,36.029785,Neighborhood Market,Walmart,5780,NA,2600 Linwood Dr,Paragould,AR,72450,,,,No,,(870) 586-7946,
-90.522908,36.058178,Supercenter,Walmart,0036,NA,2802 W Kings Hwy,Paragould,AR,72450,,,,No,,(870) 236-9707,
-93.71619,35.292862,Regular,Walmart,0230,NA,1501 E Walnut St,Paris,AR,72855,,,,No,,(479) 963-2152,
-94.118972,36.442869,Neighborhood Market,Walmart,6971,NA,240 Slack St,Pea Ridge,AR,72751,,,,No,,(479) 451-9002,Yes
-92.004393,34.174127,Supercenter,Walmart,3331,Gas/Diesel,5501 S Olive St,Pine Bluff,AR,71603,I-530,,,No, 43,(870) 534-7054,
-92.0064486,34.1726317,NA,Murphy: USA,6980,Gas/Diesel,5601 S Olive St,Pine Bluff,AR,71603,I-530,,,No, 43,(870) 575-0102,
-90.9629459,36.2510768,NA,Murphy: USA,6590,Gas,1413 Hwy 67 S,Pocahontas,AR,72455,,,,No,,(870) 248-0415,
-90.963444,36.249335,Supercenter,Walmart,0071,Gas,1415 Hwy 67 S,Pocahontas,AR,72455,,,,No,,(870) 892-7703,
-94.1252899,36.3137016,NA,Murphy: USA,6748,Gas/Diesel,1817 S 8th St,Rogers,AR,72756,,,,No,,(479) 631-1474,
-94.124812,36.313263,Neighborhood Market,Walmart,3479,Gas/Diesel,1819 S 8th St,Rogers,AR,72756,,,,No,,(479) 633-0772,Yes
-94.148724,36.332307,Supercenter,Walmart,0001,Gas/Diesel,2110 W Walnut St,Rogers,AR,72756,,,,No,,(479) 636-3222,Yes
-94.149177,36.333251,NA,Murphy: USA,6529,Gas/Diesel,2112 W Walnut St,Rogers,AR,72756,,,,No,,(479) 631-8049,
-94.183167,36.310128,Pharmacy/Clinic ,Walmart,5822,NA,2708 Rife Medical Ln,Rogers,AR,72758,,,,No,,(479) 636-4101,
-94.152051,36.280774,Neighborhood Market,Walmart,0241,Gas,4206 S Pleasant Crossing Blvd,Rogers,AR,72758,,,,No,,(479) 636-0651,
-94.151688,36.279952,Supercenter,Walmart,5260,Gas/Diesel,4208 S Pleasant Crossing Blvd,Rogers,AR,72758,I-540,,,No, 81,(479) 621-9769,
-94.18581,36.296098,Neighborhood Market,Walmart,5837,NA,5000 Pauline Whitaker Pkwy,Rogers,AR,72758,I-540,,,No, 82,(479) 254-1004,Yes
-94.125906,36.333789,Neighborhood Market,Walmart,3654,Gas,808 W Walnut,Rogers,AR,72756,,,,No,,(479) 202-7198,
-93.153153,35.28364,Neighborhood Market,Walmart,4128,NA,2109 W Main St,Russellville,AR,72801,I-40,,,No, 81,(479) 498-9511,Yes
-93.105336,35.279516,Supercenter,Walmart,0058,Gas/Diesel,2409 E Main St,Russellville,AR,72802,I-40,,,No, 84,(479) 967-9777,
-91.750864,35.245507,Neighborhood Market,Walmart,2431,NA,1330 W Beebe Capps Expwy,Searcy,AR,72143,,,,No,,(501) 203-2010,Yes
-91.68787,35.24907,Supercenter,Walmart,0157,Gas,3509 E Race Ave,Searcy,AR,72143,,,,No,,(501) 268-2207,
-91.687645,35.2476921,NA,Murphy: USA,5754,Gas,3509 E Race Ave,Searcy,AR,72143,,,,No,,(501) 305-2165,
-92.397062,34.290608,Supercenter,Walmart,0336,Gas/Diesel,1308 S Rock St,Sheridan,AR,72150,,,,No,,(870) 942-7171,
-92.398843,34.2901433,NA,Murphy: USA,7363,Gas/Diesel,1312 S Rock St,Sheridan,AR,72150,,,,No,,(870) 942-1036,
-92.2349014,34.8401756,NA,Murphy: USA,7465,Gas/Diesel,400 W Maryland,Sherwood,AR,72120,,,,No,,(501) 835-4287,
-92.232685,34.385219,Neighborhood Market,Walmart,2743,NA,8801 Hwy 107,Sherwood,AR,72120,,,,No,,(501) 833-3127,Yes
-92.235819,34.837889,Supercenter,Walmart,0007,Gas/Diesel,9053 Hwy 107,Sherwood,AR,72120,,,,No,,(501) 833-0972,
-94.5128098,36.1815109,NA,Murphy: USA,6647,Gas/Diesel,2895 Hwy 412 E,Siloam Springs,AR,72761,,,,No,,(479) 549-3910,
-94.512542,36.182377,Supercenter,Walmart,0004,Gas/Diesel,2901 Hwy 412 E,Siloam Springs,AR,72761,,,,No,,(479) 524-5101,
-94.558361,36.175094,Neighborhood Market,Walmart,6960,NA,935 S Holly St,Siloam Springs,AR,72761,,,,No,,(479) 549-9060,Yes
-94.09239,36.164267,Neighborhood Market,Walmart,5738,NA,3553 E Robinson Ave,Springdale,AR,72764,,,,No,,(479) 750-4683,Yes
-94.162598,36.173767,Neighborhood Market,Walmart,2742,NA,1375 Market Square Dr,Springdale,AR,72762,,,,No,,(479) 750-7853,Yes
-94.190489,36.173537,NA,Sam's Club,4808,Gas/Diesel,1517 S 56th St,Springdale,AR,72762,,,,No,,(479) 365-8141,
-94.145398,36.166186,Supercenter,Walmart,0054,NA,2004 S Pleasant,Springdale,AR,72764,,,,No,,(479) 751-4817,Yes
-94.183841,36.194825,Supercenter,Walmart,4108,NA,4870 Elm Springs Rd,Springdale,AR,72762,I-49,,,No, 73,(479) 306-7025,
-94.162129,36.200292,Neighborhood Market,Walmart,4375,NA,4900 Jennifer Terrace,Springdale,AR,72762,,,,No,,(479) 927-1816,Yes
-91.548865,34.477903,Supercenter,Walmart,0102,NA,406 E 22nd St,Stuttgart,AR,72160,,,,No,,(870) 673-3349,
-94.039737,33.461264,Supercenter,Walmart,0468,Gas/Diesel,133 Arkansas Blvd,Texarkana,AR,71854,I-30,,,No, 223,(870) 772-1501,
-94.0388898,33.460302,NA,Murphy: USA,6781,Gas/Diesel,411 Arkansas Blvd,Texarkana,AR,71854,I-30,,,No, 223,(870) 773-9888,
-90.5507232,35.6795738,NA,Murphy: USA,7088,Gas/Diesel,510 Industrial Park Dr,Trumann,AR,72472,,,,No,,(870) 483-2237,
-90.550769,35.681475,Supercenter,Walmart,0229,Gas/Diesel,512 Industrial Park Dr,Trumann,AR,72472,,,,No,,(870) 483-6491,
-94.3553543,35.468441,NA,Murphy: USA,5804,Gas/Diesel,2210 Fayetteville Rd,Van Buren,AR,72956,I-40,,,No, 5,(479) 471-9322,
-94.354547,35.469159,Supercenter,Walmart,0016,Gas/Diesel,2214 Fayetteville Rd,Van Buren,AR,72956,I-40,,,No, 5,(479) 474-2314,
-90.974148,36.076106,Regular,Walmart,0057,NA,1600 W Main,Walnut Ridge,AR,72476,,,,No,,(870) 886-6605,
-90.651547,34.555417,Supercenter,Walmart,0714,Gas/Diesel,602 Shelia St,West Helena,AR,72390,,,,No,,(870) 572-2442,Yes
-90.6529556,34.5553252,NA,Murphy: USA,6591,Gas/Diesel,604 Shelia St,West Helena,AR,72390,,,,No,,(870) 572-1574,
-90.19983,35.166303,Supercenter,Walmart,0070,NA,798 W Service Rd W,West Memphis,AR,72301,I-40,I-55,,No, 82/77,(870) 732-0175,Yes
-90.777691,35.252414,Supercenter,Walmart,0068,Gas/Diesel,800 Hwy 64 E,Wynne,AR,72396,,,,No,,(870) 238-8129,
-90.7776489,35.2518997,NA,Murphy: USA,6926,Gas/Diesel,802 Hwy 64 E,Wynne,AR,72396,,,,No,,(870) 238-6306,
-112.153651,33.869605,Supercenter,Walmart,5329,NA,4435 W Anthem Way,Anthem,AZ,85086,I-17,,,No, 232,(623) 551-6314,Yes
-111.573978,33.413959,Supercenter,Walmart,1381,NA,2555 W Apache Trail,Apache Junction,AZ,85220,,,,No,,(480) 380-3800,Yes
-112.338116,33.459664,Supercenter,Walmart,2554,NA,13055 W Rancho Sante Fe Blvd,Avondale,AZ,85323,I-10,,,No, 128,(623) 935-4010,
-112.339724,33.452157,NA,Sam's Club,4830,NA,1459 N Dysart Rd,Avondale,AZ,85323,I-10,,,No, 129,(623) 882-3859,
-110.31409,31.96951,Supercenter,Walmart,3807,NA,201 S Prickly Pear AvE ,Benson,AZ,85602,I-10,,,No, 304,(520) 586-0742,Yes
-112.559167,33.43785,Supercenter,Walmart,3407,NA,1060 S Watson,Buckeye,AZ,85326,I-10,,,No, 117,(623) 474-6728,Yes
-114.595213,35.082174,Supercenter,Walmart,1370,NA,2840 Hwy 95,Bullhead City,AZ,86442,,,,No,,(928) 758-7222,Yes
-114.564442,35.165786,NA,Sam's Club,4915,Gas/Diesel,600 Hwy 95,Bullhead City,AZ,86426,,,,No,,(928) 754-3900,
-111.712382,32.878175,Supercenter,Walmart,1218,NA,1741 E Florence Blvd,Casa Grande,AZ,85122,I-10,,,No, 194,(520) 421-1200,Yes
-111.963038,33.796648,Supercenter,Walmart,5835,NA,34399 N Cave Creek Rd,Cave Creek,AZ,85331,,,,No,,(480) 296-7398,Yes
-111.838943,33.289296,Supercenter,Walmart,2671,NA,1175 S Arizona Ave,Chandler,AZ,85248,,,,No,,(480) 726-0841,Yes
-111.809403,33.306454,Neighborhood Market,Walmart,4324,NA,1900 E Chandler Blvd,Chandler,AZ,85225,,,,No,,(480) 448-4322,
-111.793268,33.280469,Supercenter,Walmart,3360,NA,2750 E Germann Rd,Chandler,AZ,85249,,,,No,,(480) 812-2930,Yes
-111.90087,33.30507,Supercenter,Walmart,6480,NA,3460 W Chandler Blvd,Chandler,AZ,85226,,,,No,,(480) 333-2654,Yes
-111.944652,33.305269,Neighborhood Market,Walmart,2657,NA,6085 W Chandler Blvd,Chandler,AZ,85226,I-10,,,No, 161,(480) 477-0212,Yes
-111.970007,33.31494,NA,Sam's Club,6213,Gas,700 N 54th St,Chandler,AZ,85226,I-10,,,No, 159,(480) 893-1555,
-111.854609,33.336902,Supercenter,Walmart,1512,NA,800 W Warner Rd,Chandler,AZ,85224,,,,No,,(480) 786-0062,Yes
-110.836821,33.413342,Supercenter,Walmart,1334,Gas,100 S Ragus Rd,Claypool,AZ,85532,,,,No,,(928) 425-7171,
-111.521116,32.999856,Supercenter,Walmart,2778,Gas,1695 N Arizona Blvd,Coolidge,AZ,85228,,,,No,,(520) 723-0945,
-112.000176,34.713476,Supercenter,Walmart,1299,NA,2003 E Rodeo Dr,Cottonwood,AZ,86326,,,,No,,(928) 634-0444,Yes
-109.564311,31.338256,Supercenter,Walmart,1846,NA,199 W 5th St,Douglas,AZ,85607,,,,No,,(520) 364-1281,Yes
-112.337496,33.610102,Supercenter,Walmart,4336,NA,12900 W Thunderbird,El Mirage,AZ,85335,,,,No,,(623) 583-1321,Yes
-111.629327,35.19012,NA,Sam's Club,6604,Gas/Diesel,1851 E Butler Ave,Flagstaff,AZ,86001,I-40,,,No, 198,(928) 774-9444,
-111.614861,35.198849,Supercenter,Walmart,4252,NA,2601 E Huntington Dr,Flagstaff,AZ,86004,I-40,,,No,Exit 196,(928) 774-3409,Yes
-111.664542,35.175916,Regular,Walmart,1175,NA,2750 S Woodlands Village Blvd,Flagstaff,AZ,86001,I-17,,,No, 341,(928) 773-1117,Yes
-114.598947,35.002782,Supercenter,Walmart,4203,Gas,5210 S Hwy 95,Fort Mohave,AZ,86426,,,,No,,(928) 768-5988,
-111.788477,33.372563,NA,Sam's Club,6605,Gas,1225 N Gilbert Rd,Gilbert,AZ,85234,,,,No,,(480) 926-9006,
-111.741901,33.30481,Supercenter,Walmart,5186,NA,2501 S Market St,Gilbert,AZ,85296,,,,No,,(480) 224-6900,Yes
-111.741798,33.303469,NA,Sam's Club,4829,Gas/Diesel,2621 S Market St,Gilbert,AZ,85296,,,,No,,(480) 722-1447,
-111.742072,33.30481,Supercenter,Walmart,3861,NA,5290 S Power Rd,Gilbert,AZ,85295,,,,No,,(480) 988-0012,Yes
-112.235229,33.648837,NA,Sam's Club,4732,Gas,18501 N 83rd Ave,Glendale,AZ,85308,,,,No,,(623) 825-9257,
-112.235073,33.650614,Supercenter,Walmart,3241,NA,18551 N 83rd Ave,Glendale,AZ,85308,,,,No,,(623) 825-1129,Yes
-112.15018,33.6558,Neighborhood Market,Walmart,3315,NA,4230 W Union Hills Dr,Glendale,AZ,85308,,,,No,,(623) 869-0779,
-112.26617,33.510108,Supercenter,Walmart,3465,NA,5010 N 95th Ave,Glendale,AZ,85305,,,,No,,(623) 872-0058,Yes
-112.171683,33.568833,Neighborhood Market,Walmart,3844,NA,5137 W Olive Dr,Glendale,AZ,85302,,,,No,,(623) 939-4237,Yes
-112.179839,33.552101,Supercenter,Walmart,5124,NA,5605 W Northern Ave,Glendale,AZ,85301,,,,No,,(623) 934-6920,Yes
-112.184983,33.637417,Supercenter,Walmart,1532,NA,5845 W Bell Rd,Glendale,AZ,85306,,,,No,,(602) 978-8205,Yes
-112.202404,33.712872,Neighborhood Market,Walmart,4233,NA,6550 W Happy Valley Rd,Glendale,AZ,85310,,,,No,,(623) 566-9754,
-112.201434,33.58083,Neighborhood Market,Walmart,3845,NA,6645 W Peoria,Glendale,AZ,85301,,,,No,,(623) 773-2947,Yes
-112.218873,33.538806,Neighborhood Market,Walmart,3314,NA,7450 W Glendale Ave,Glendale,AZ,85303,,,,No,,(623) 915-2632,Yes
-112.395302,33.458566,Supercenter,Walmart,5369,NA,1100 N Estrella Pkwy,Goodyear,AZ,85338,I-10,,,No, 124,(623) 925-9575,Yes
-112.364171,33.486762,Neighborhood Market,Walmart,3604,NA,14200 W Indian School Rd,Goodyear,AZ,85338,,,,No,,(623) 935-7007,Yes
-114.033676,35.222409,Supercenter,Walmart,2051,NA,3396 N Stockton Hill Rd,Kingman,AZ,86401,I-40,,,No, 51,(928) 692-0555,Yes
-114.36729,34.57158,Supercenter,Walmart,1364,NA,5695 Hwy 95 N,Lake Havasu City,AZ,86403,,,,No,,(928) 764-3700,Yes
-111.048718,32.33763,Neighborhood Market,Walmart,3142,NA,3900 W Ina Rd,Marana,AZ,85741,I-10,,,No,Exit 248,(520) 329-6156,
-112.01452,33.038222,Supercenter,Walmart,4430,NA,41650 W Maricopa Casa Grande,Maricopa,AZ,85238,,,,No,,(520) 568-0846,Yes
-111.600213,33.383775,Supercenter,Walmart,3833,NA,1606 S Signal Butte Rd,Mesa,AZ,85206,,,,No,,(480) 358-1122,Yes
-111.740235,33.383632,Supercenter,Walmart,5428,NA,1710 S Greenfield Rd,Mesa,AZ,85206,,,,No,,(480) 892-3814,Yes
-111.772122,33.38027,Neighborhood Market,Walmart,5304,NA,1916 S Lindsay Rd,Mesa,AZ,85204,,,,No,,(480) 892-6085,Yes
-111.803941,33.380305,Supercenter,Walmart,2768,NA,1955 S Stapley Dr,Mesa,AZ,85204,,,,No,,(480) 892-9009,Yes
-111.836646,33.379807,Supercenter,Walmart,3799,NA,240 W Baseline Rd,Mesa,AZ,85210,,,,No,,(480) 668-9501,Yes
-111.772058,33.450018,Neighborhood Market,Walmart,3846,NA,2725 E Mckellips,Mesa,AZ,85213,,,,No,,(480) 733-1679,Yes
-111.733588,33.450248,Supercenter,Walmart,2767,NA,4505 E Mckellips Rd,Mesa,AZ,85215,,,,No,,(480) 641-6728,Yes
-111.720556,33.423455,Neighborhood Market,Walmart,5257,NA,5122 E University Dr,Mesa,AZ,85205,,,,No,,(480) 832-9484,Yes
-111.698976,33.392574,Supercenter,Walmart,1646,NA,6131 E Southern AvE ,Mesa,AZ,85206,,,,No,,(480) 830-3919,Yes
-111.814295,33.452079,Neighborhood Market,Walmart,5332,NA,730 E Mckellips Rd,Mesa,AZ,85203,,,,No,,(480) 964-2347,Yes
-111.654285,33.363419,Neighborhood Market,Walmart,5349,NA,8335 E Guadalupe Rd,Mesa,AZ,85212,,,,No,,(480) 357-4137,Yes
-111.86567,33.43261,Supercenter,Walmart,2482,NA,857 N Dobson,Mesa,AZ,85201,,,,No,,(480) 962-6140,Yes
-110.93259,31.361826,Supercenter,Walmart,1324,NA,100 W White Park Dr,Nogales,AZ,85621,I-19,,,No, 4,(520) 281-4974,
-110.940892,32.424867,Supercenter,Walmart,3379,NA,2150 E Tangerine Rd,Oro Valley,AZ,85737,,,,No,,(520) 544-0016,Yes
-110.976525,32.350743,Neighborhood Market,Walmart,4264,NA,7951 N Oracle Rd,Oro Valley,AZ,85704,,,,No,,(520) 469-9567,Yes
-111.486394,36.904545,Supercenter,Walmart,1442,NA,1017 W Haul Rd,Page,AZ,86040,,,,No,,(928) 645-2622,
-114.276833,34.156184,Supercenter,Walmart,4543,NA,100 W Riverside Dr,Parker,AZ,85344,,,,No,,(928) 669-2161,
-111.324422,34.244334,Supercenter,Walmart,1369,NA,300 N Beeline Hwy,Payson,AZ,85541,,,,No,,(928) 474-0029,
-112.277159,33.679777,Supercenter,Walmart,3896,NA,21655 N Lake Pleasant Pkwy,Peoria,AZ,85382,,,,No,,(623) 537-0809,Yes
-112.218157,33.610362,Neighborhood Market,Walmart,4275,NA,7421 W Thunderbird Rd,Peoria,AZ,85381,,,,No,,(623) 627-9848,Yes
-112.230404,33.579494,Supercenter,Walmart,1533,NA,7975 W Peoria Ave,Peoria,AZ,85345,,,,No,,(623) 878-9907,Yes
-112.072128,33.566761,Neighborhood Market,Walmart,2632,NA,115 E Dunlap Ave,Phoenix,AZ,85020,,,,No,,(480) 754-8043,
-112.092019,33.638918,NA,Sam's Club,6608,Gas/Diesel,1525 W Bell Rd,Phoenix,AZ,85023,I-17,,,No, 212,(602) 439-9852,
-112.092429,33.52284,Supercenter,Walmart,2113,NA,1607 W Bethany Home Rd,Phoenix,AZ,85015,I-17,,,No, 204,(602) 246-1700,Yes
-112.098077,33.638301,Supercenter,Walmart,2512,NA,1825 W Bell Rd,Phoenix,AZ,85023,I-17,,,No, 212,(602) 942-4138,Yes
-112.222357,33.470522,Supercenter,Walmart,1549,NA,2020 N 75th AvE ,Phoenix,AZ,85035,I-10,,,No, 136,(623) 849-1030,Yes
-112.029095,33.37662,Neighborhood Market,Walmart,4293,NA,2435 E Baseline Rd,Phoenix,AZ,85042,,,,No,,(602) 232-2115,Yes
-112.112877,33.709235,Supercenter,Walmart,5190,Gas,2501 W Happy Valley Rd,Phoenix,AZ,85085,I-17,,,No,Exit 218,(623) 780-5702,Yes
-112.000794,33.479455,Supercenter,Walmart,2515,NA,3721 E Thomas Rd,Phoenix,AZ,85018,,,,No,,(602) 685-0555,Yes
-111.981129,33.639444,Supercenter,Walmart,1598,NA,4617 E Bell Rd,Phoenix,AZ,85032,,,,No,,(602) 482-7575,Yes
-111.978784,33.596729,Supercenter,Walmart,4232,NA,4747 E Cactus Rd,Phoenix,AZ,85032,,,,No,,(602) 404-3712,Yes
-112.172632,33.495824,Supercenter,Walmart,5189,NA,5250 W Indian School Rd,Phoenix,AZ,85031,,,,No,,(623) 845-8713,Yes
-112.132794,33.5257,Supercenter,Walmart,5330,NA,6145 N 35th Ave,Phoenix,AZ,85017,,,,No,,(602) 973-0774,Yes
-112.135626,33.390424,Supercenter,Walmart,3771,NA,6150 S 35th Ave,Phoenix,AZ,85041,,,,No,,(602) 243-8506,Yes
-112.223165,33.421437,Supercenter,Walmart,5331,NA,7575 W Lower Buckeye Rd,Phoenix,AZ,85043,,,,No,,(623) 907-0007,Yes
-112.238891,33.466367,NA,Sam's Club,6606,Gas,8340 W Mcdowell Rd,Phoenix,AZ,85037,I-10,,,No, 135,(623) 936-8528,
-112.124489,33.573551,Supercenter,Walmart,6477,NA,9600 N Metro Pkwy W,Phoenix,AZ,85051,,,,No,,(480) 337-0256,
-112.3414726,34.5925034,Supercenter,Walmart,3730,NA,3450 Glassford Hill Rd,Prescott Valley,AZ,86314,,,,No,,(928) 499-3136,Yes
-112.4860298,34.5655967,Supercenter,Walmart,5303,NA,1280 Gail Gardner Way,Prescott,AZ,86305,,,,No,,(928) 541-0071,Yes
-112.4086419,34.5547312,Supercenter,Walmart,1417,NA,3050 N Hwy 69,Prescott,AZ,86301,,,,No,,(928) 445-1113,Yes
-111.630178,33.250541,Supercenter,Walmart,4451,NA,21055 S RittenhouSE Rd,Queen Creek,AZ,85242,,,,No,,(480) 457-1158,Yes
-109.732722,32.833136,Supercenter,Walmart,1149,NA,755 S 20th Ave,Safford,AZ,85546,,,,No,,(928) 428-7990,
-110.981827,31.911651,Supercenter,Walmart,1411,NA,18680 S Nogales Hwy,Sahuarita,AZ,85629,I-19,,,No, 69,(520) 625-3808,Yes
-114.785,32.508016,Supercenter,Walmart,4337,NA,1613 N Main St,San Luis,AZ,85349,,,,No,,(928) 722-7278,
-111.583983,33.177048,Supercenter,Walmart,3751,NA,1725 W Hunt Hwy,San Tan Valley,AZ,85143,,,,No,,(480) 677-2149,Yes
-111.893563,33.623893,Supercenter,Walmart,2766,NA,15355 N Northsight Blvd.,Scottsdale,AZ,85260,,,,No,,(480) 348-5505,Yes
-111.890207,33.507817,Supercenter,Walmart,2112,NA,4915 N Pima Rd,Scottsdale,AZ,85251,,,,No,,(480) 941-0333,Yes
-110.016784,34.200596,Supercenter,Walmart,1230,NA,5401 S White Mountain Rd,Show Low,AZ,85901,,,,No,,(928) 537-3141,
-110.25863,31.560361,Supercenter,Walmart,1240,NA,500 N Hwy 90,Sierra Vista,AZ,85635,,,,No,,(520) 458-8790,Yes
-112.357207,33.642053,Supercenter,Walmart,2777,NA,13770 W Bell Rd,Surprise,AZ,85374,,,,No,,(623) 544-2200,
-112.42075,33.611071,Supercenter,Walmart,5429,NA,14111 N Prasada Gateway Ave,Surprise,AZ,85388,,,,No,,(623) 282-3208,
-112.392387,33.623058,Neighborhood Market,Walmart,4218,NA,15431 W Greenway Rd,Surprise,AZ,85374,,,,No,,(623) 584-0189,Yes
-112.414669,33.636633,NA,Sam's Club,4955,Gas/Diesel,16573 W Bell Rd,Surprise,AZ,85374,,,,No,,(623) 584-0054,
-110.08711,34.475194,Supercenter,Walmart,4355,NA,715 N Main St,Taylor,AZ,85939,,,,No,,(928) 536-2543,
-111.960815,33.350258,Supercenter,Walmart,1746,NA,1380 W Elliott Rd,Tempe,AZ,85283,,,,No,,(480) 345-8686,
-111.929509,33.414248,Regular,Walmart,4060,NA,671 E Apache Blvd,Tempe,AZ,85281,,,,No,,(480) 967-2237,
-111.92789,33.393911,Supercenter,Walmart,5768,NA,800 E Southern,Tempe,AZ,85282,,,,No,,(480) 966-0264,Yes
-110.95159,32.18622,Supercenter,Walmart,5626,NA,1260 E Tucson MarketPL,Tucson,AZ,85713,I-10,,,No,Exit 261/262,(420) 917-0108,Yes
-111.00071,32.135508,Supercenter,Walmart,1612,NA,1650 W Valencia Rd,Tucson,AZ,85746,I-10,,,No, 95,(520) 573-3777,Yes
-111.012969,32.293638,Neighborhood Market,Walmart,4473,NA,2175 W Ruthrauff Rd,Tucson,AZ,85705,I-10,,,No, 252,(520) 292-2542,Yes
-110.841719,32.193078,Neighborhood Market,Walmart,3049,NA,2550 S Kolb Rd,Tucson,AZ,85710,,,,No,,(520) 329-6471,Yes
-110.933168,32.147499,Neighborhood Market,Walmart,4490,NA,2565 E Commerce Center Pl,Tucson,AZ,85706,I-10,,,No, 264,(520) 837-0750,
-110.770789,32.190771,Supercenter,Walmart,5799,NA,2711 S Houghton Rd,Tucson,AZ,85730,,,,No,,(520) 918-0087,Yes
-111.026149,32.132949,Neighborhood Market,Walmart,3377,NA,2823 W Valencia Rd,Tucson,AZ,85746,,,,No,,(520) 908-2556,Yes
-110.918494,32.222538,Supercenter,Walmart,3884,NA,3435 E Broadway Blvd,Tucson,AZ,85716,I-10,,,No, 258,(520) 917-1655,
-110.908934,32.2513,Neighborhood Market,Walmart,3357,NA,3925 E Grant Rd,Tucson,AZ,85712,,,,No,,(520) 327-0085,Yes
-110.964748,32.287706,Regular,Walmart,1325,NA,455 E Wetmore,Tucson,AZ,85705,,,,No,,(520) 292-2992,Yes
-110.972101,32.292471,NA,Sam's Club,6692,Gas,4701 N Stone Ave,Tucson,AZ,85704,,,,No,,(520) 292-9789,
-110.874289,32.206479,Neighborhood Market,Walmart,4603,NA,5500 E 22nd St,Tucson,AZ,85711,,,,No,,(520) 745-0267,Yes
-110.839177,32.234414,Supercenter,Walmart,1291,NA,7150 E Speedway,Tucson,AZ,85710,,,,No,,(520) 751-1882,Yes
-111.01501,32.344219,Supercenter,Walmart,2922,Gas,7635 N La Cholla Blvd,Tucson,AZ,85741,,,,No,,(520) 297-0840,Yes
-111.090062,32.355598,Supercenter,Walmart,5031,NA,8280 N Cortaro,Tucson,AZ,85743,I-10,,,No, 246,(520) 744-3652,
-110.958929,32.265105,Neighborhood Market,Walmart,5725,NA,831 E Fort Lowell Rd,Tucson,AZ,85719,,,,No,,(520) 719-6349,
-110.807944,32.220767,Neighborhood Market,Walmart,3143,NA,8640 E Broadway Blvd,Tucson,AZ,85710,,,,No,,(520) 329-6870,
-110.771518,32.085043,Supercenter,Walmart,5858,NA,9260 S Houghton Rd,Tucson,AZ,85747,,,,No,,(520) 329-6674,Yes
-110.701348,35.041993,Supercenter,Walmart,1328,NA,700 Mikes' Pike Blvd,Winslow,AZ,86047,I-40,,,No, 253,(928) 289-4641,
-114.6001,32.7007,NA,Sam's Club,6205,Gas,1462 S Pacific Ave,Yuma,AZ,85365,I-8,,,No,Exit 2,(928) 783-3684,
-114.648378,32.6817,Supercenter,Walmart,5342,NA,2501 S Ave B,Yuma,AZ,85364,,,,No,,(928) 317-2776,Yes
-114.651262,32.712491,Neighborhood Market,Walmart,7320,NA,2675 W 8th St,Yuma,AZ,85364,I-8,,,No, 170,(928) 261-4120,
-114.600547,32.674594,Supercenter,Walmart,1474,Gas,2900 S Pacific Ave,Yuma,AZ,85364,I-8,,,No, 2,(928) 344-0992,Yes
-114.493401,32.669209,Supercenter,Walmart,4325,NA,8151 E 32nd St,Yuma,AZ,85365,I-8,,,No, 9,(928) 344-5974,Yes
-122.270378,49.035604,Supercenter,Walmart,3019,NA,1812 Vedder Way,Abbotsford,BC,V2S 8K1,,,,No,,(604) 854-3575,
-122.381058,49.060116,Supercenter,Walmart,1113,NA,3122 Mt. Lehman Rd,Abbotsford,BC,V4X 0B3,,,,No,,(604) 504-2080,
-122.896155,49.251982,Supercenter,Walmart,3008,NA,9855 Austin Ave Suite 300,Burnaby,BC,V3J 1N5,,,,No,,(604) 421-0661,Yes
-125.26102,50.031555,Supercenter,Walmart,1077,NA,1477 Island Hwy,Campbell River,BC,V9W 2E6,,,,No,,(250) 287-3631,
-121.979039,49.150878,Supercenter,Walmart,3167,NA,8249 Eagle Landing Pkwy,Chilliwack,BC,V2R 1A2,,,,No,,(604) 792-7522,
-122.798693,49.279109,Supercenter,Walmart,1208,NA,2929 Barnet Hwy,Coquitlam,BC,V3B 5R5,,,,No,,(778) 284-3310,
-124.980392,49.66745,Supercenter,Walmart,3163,NA,3199 Cliffe Ave,Courtenay,BC,V9N 2L9,,,,No,,(250) 898-8998,Yes
-115.750011,49.531199,Supercenter,Walmart,3183,NA,2100 Willowbrook Dr,Cranbrook,BC,V1C 7H2,,,,No,,(250) 489-3202,Yes
-120.220272,55.738594,Supercenter,Walmart,5776,NA,600 Hwy-2,Dawson Creek,BC,V1G 0A4,,,,No,,(250) 719-0128,
-122.892594,49.132875,Supercenter,Walmart,1207,NA,7155 120th St,Delta,BC,V4E 2B1,,,,No,,(604) 595-3617,
-123.721816,48.801923,Supercenter,Walmart,3025,NA,3020 Drinkwater Rd,Duncan,BC,V9L 6C6,,,,No,,(250) 748-2566,
-120.836503,56.236375,Supercenter,Walmart,3661,NA,9007 96A St,Fort St John,BC,V1J 7B6,,,,No,,(250) 261-5544,
-120.370047,50.664984,Supercenter,Walmart,3040,NA,1055 Hillside Dr Unit #100,Kamloops,BC,V2E 2S5,,,,No,,(250) 374-1591,Yes
-119.42664,49.88744,Supercenter,Walmart,3042,NA,1555 Banks Rd,Kelowna,BC,V1X 7Y8,,,,No,,(250) 860-8811,
-123.505611,48.443247,Supercenter,Walmart,3188,NA,860 Langford Pkwy,Langford,BC,V9B 2P3,,,,No,,(250) 391-0224,
-122.66237,49.121463,Supercenter,Walmart,3158,NA,20202 66 Ave,Langley,BC,V2Y 1P3,,,,No,,(604) 539-5210,Yes
-122.601322,49.21808,Supercenter,Walmart,1206,NA,11850 224th St,Maple Ridge,BC,V2X 8S1,,,,No,,(778) 306-9936,
-120.751519,50.122669,Regular,Walmart,1036,NA,3900 Crawford Ave,Merritt,BC,V1K 0A4,,,,No,,(250) 315-1366,
-122.340151,49.132192,Supercenter,Walmart,1119,NA,31956 Lougheed Hwy,Mission,BC,V2V 1A1,,,,No,,(604) 820-0048,
-124.051323,49.238022,Supercenter,Walmart,3059,NA,6801 Island Hwy N,Nanaimo,BC,V9T 6N8,,,,No,,(250) 390-2344,Yes
-117.290176,49.499073,Regular,Walmart,3060,NA,1000 Lakeside Dr,Nelson,BC,V1L 6G3,,,,No,,(250) 352-3782,Yes
-122.922115,49.212503,Supercenter,Walmart,1192,NA,610 Sixth St,New Westminster,BC,V3L 3C2,,,,No,,(604) 396-8481,
-122.95053,49.19211,Supercenter,Walmart,5777,NA,805 Boyd St,New Westminster,BC,V3M 5X2,,,,No,,(604) 524-1291,
-123.101119,49.320529,Supercenter,Walmart,3057,NA,925 Marine Dr,North Vancouver,BC,V7P 1S2,,,,No,,(604) 984-6830,
-119.588817,49.464486,Supercenter,Walmart,3070,NA,275 Green Ave W,Penticton,BC,V2A 7J2,,,,No,,(250) 493-8396,
-124.782034,49.267302,Supercenter,Walmart,1018,NA,3355 Johnston Rd (Hwy 4,Port Alberni,BC,V9Y 8K1,,,,No,,(250) 720-0912,
-122.735814,49.252668,Supercenter,Walmart,1112,NA,2150 Hawkins St,Port Coquitlam,BC,V3B 0G6,,,,No,,(604) 472-1225,
-124.51841,49.84634,Regular,Walmart,3072,NA,7100 Alberni St,Powell River,BC,V8A 5K9,,,,No,,(604) 485-9811,
-122.78594,53.864341,Supercenter,Walmart,3651,NA,6565 Southridge Ave,Prince George,BC,V2N 6Z4,,,,No,,(250) 906-3203,
-130.326883,54.312739,Regular,Walmart,1143,NA,500 2nd Ave W,Prince Rupert,BC,V8J 3T6,,,,No,,(250) 624-8686,
-122.44106,52.9651,Supercenter,Walmart,3199,NA,890 Rita Rd,Quesnel,BC,V2J 7J3,,,,No,,(250) 747-4464,
-123.118528,49.17829,Supercenter,Walmart,3652,NA,9251 Alderbridge Way,Richmond,BC,V6N 0N1,,,,No,,(604) 288-4395,
-119.318841,50.694892,Supercenter,Walmart,1100,NA,2991 A 10th Ave,Salmon Arm,BC,V1E 0C3,,,,No,,(250) 803-4400,
-123.149411,49.721601,Regular,Walmart,1015,NA,39210 Discovery Way,Squamish,BC,V8B 0N1,,,,No,,(604) 815-4337,
-122.805323,49.187696,Supercenter,Walmart,3098,NA,1000 Guildford Town Centre,Surrey,BC,V3R 1N3,,,,No,,(604) 581-1932,Yes
-122.877398,49.165113,Supercenter,Walmart,5838,NA,12451 88 Ave,Surrey,BC,V3W 1P8,,,,No,,(604) 597-7117,Yes
-122.845952,49.186226,Supercenter,Walmart,1205,NA,2151-10153 King George Hwy,Surrey,BC,V3T 2W3,,,,No,,(604) 495-8697,Yes
-122.780096,49.044119,Supercenter,Walmart,5853,NA,2355 160 St,Surrey,BC,V3S 9N6,,,,No,,(604) 541-9015,Yes
-128.579083,54.511226,Supercenter,Walmart,5834,NA,4427 Hwy 16 W,Terrace,BC,V8G 4R6,,,,No,,(250) 615-4728,Yes
-117.620645,49.085286,Supercenter,Walmart,1011,NA,1601 Marcolin Dr,Trail,BC,V1R 4Y1,,,,No,,(250) 364-2688,
-123.081018,49.041823,Supercenter,Walmart,1181,NA,5143 Canoe Pass Way,Tsawwassen,BC,V4M 0B2,,,,No,,(778) 783-5380,
-123.02783,49.25928,Supercenter,Walmart,1104,NA,3585 Grandview Hwy,Vancouver,BC,V5M 2G7,,,,No,,(604) 435-6905,
-119.260572,50.288147,Supercenter,Walmart,3169,NA,2200 - 58th Ave,Vernon,BC,V1T 9T2,,,,No,,(250) 558-0526,Yes
-123.374209,48.455239,Supercenter,Walmart,3109,NA,3460 Saanich Rd,Victoria,BC,V8X 1X2,,,,No,,(250) 475-3356,Yes
-119.61333,49.850534,Supercenter,Walmart,1093,NA,2170 Louie Dr,Westbank,BC,V4T 3E5,,,,No,,(250) 768-2417,
-122.124,52.113,Supercenter,Walmart,1106,NA,1205 Prosperity Way,Williams Lake,BC,V2G 0A5,,,,No,,(205) 305-6866,
-122.254149,38.184406,Supercenter,Walmart,1651,NA,7011 N Main St,American Canyon,CA,94503,,,,No,,(707) 557-4393,Yes
-117.907932,33.819176,Neighborhood Market,Walmart,5640,NA,1120 S Anaheim Blvd,Anaheim,CA,92805,I-5,,,No,Exit 110,(657) 208-5201,Yes
-117.994102,33.832609,Neighborhood Market,Walmart,3101,NA,121 N Beach Blvd,Anaheim,CA,92801,,,,No,,(714) 822-3179,
-117.938894,33.836475,Supercenter,Walmart,2242,NA,440 N Euclid St,Anaheim,CA,92801,I-5,,,No, 111,(714) 491-0744,Yes
-117.918879,33.859075,Supercenter,Walmart,5930,NA,88 E Orangethorpe Ave,Anaheim,CA,92801,,,,No,,(714) 447-6751,Yes
-122.288763,40.431879,Supercenter,Walmart,5133,NA,5000 Rhonda Rd,Anderson,CA,96007,I-15,,,No, 667,(530) 378-0244,
-121.393747,38.712722,Supercenter,Walmart,1881,NA,7901 Watt Ave,Antelope,CA,95843,,,,No,,(916) 332-3173,Yes
-121.761632,37.962732,Supercenter,Walmart,2697,NA,4893 Lone Tree Way,Antioch,CA,94509,,,,No,,(925) 755-0900,Yes
-117.2227,34.525952,Regular,Walmart,2333,NA,20251 Hwy 18,Apple Valley,CA,92307,,,,No,,(760) 946-2030,Yes
-120.597738,35.128305,Regular,Walmart,2556,NA,1168 W Branch St.,Arroyo Grande,CA,93420,,,,No,,(805) 474-0800,Yes
-120.609274,37.340527,Supercenter,Walmart,5890,NA,800 Commerce Ave,Atwater,CA,95301,,,,No,,(209) 676-3087,
-119.146439,35.369484,Neighborhood Market,Walmart,3139,NA,1249 Allen Rd,Bakersfield,CA,93312,,,,No,,(661) 535-6373,
-118.96062,35.392429,Supercenter,Walmart,1624,NA,2601 Fashion PL,Bakersfield,CA,93306,,,,No,,(661) 873-7120,
-119.021651,35.434141,Neighborhood Market,Walmart,3140,NA,3111 N Chester Ave,Bakersfield,CA,93308,,,,No,,(661) 368-7010,Yes
-118.947899,35.353474,Neighborhood Market,Walmart,3141,NA,5037 E Brundage Ln,Bakersfield,CA,93307,Hwy,,,No,56 Exit 115,(661) 448-8147,Yes
-119.094421,35.308867,Supercenter,Walmart,5134,NA,5075 Gosford Rd,Bakersfield,CA,93313,,,,No,,(661) 282-3099,Yes
-119.1107,35.412109,Neighborhood Market,Walmart,3138,NA,5625 Calloway Dr,Bakersfield,CA,93312,,,,No,,(661) 368-7065,Yes
-119.094562,35.304472,NA,Sam's Club,4819,Gas/Diesel,5625 Gosford Rd,Bakersfield,CA,93313,,,,No,,(661) 654-8565,
-119.029263,35.298027,Supercenter,Walmart,1574,NA,6225 Colony St,Bakersfield,CA,93307,,,,No,,(661) 398-7297,
-119.095315,35.385678,Supercenter,Walmart,2557,NA,8400 Rosedale Hwy,Bakersfield,CA,93312,,,,No,,(661) 588-2097,
-117.962596,34.071194,Supercenter,Walmart,3522,NA,3250 Big Dalton Ave,Baldwin Park,CA,91706,I-10,,,No, 33,(626) 814-2235,Yes
-116.992404,34.882565,Supercenter,Walmart,1879,NA,621 Montara Rd,Barstow,CA,92311,I-40,,,No, 1,(760) 252-5000,
-116.9521,33.9243,Supercenter,Walmart,5156,NA,1540 E 2nd St,Beaumont,CA,92223,,,,No,,(951) 845-1529,
-115.546748,32.962429,Supercenter,Walmart,5335,NA,250 Wildcat Dr,Brawley,CA,92227,,,,No,,(760) 351-0186,
-117.865358,33.912703,Regular,Walmart,2523,NA,2595 E Imperial Hwy,Brea,CA,92821,,,,No,,(714) 529-0596,Yes
-117.986569,33.845499,Regular,Walmart,5032,NA,8450 La Palma Ave,Buena Park,CA,90620,,,,No,,(714) 484-8668,Yes
-118.32383,34.188319,Supercenter,Walmart,5086,NA,1301 N Victory PL,Burbank,CA,91502,I-5,,,No, 46,(747) 261-7243,Yes
-115.496482,32.696619,Supercenter,Walmart,1859,NA,2540 Rockwood Ave,Calexico,CA,92231,,,,No,,(760) 768-5013,
-119.095274,34.220759,Neighborhood Market,Walmart,5664,NA,275 W Ventura Blvd,Camarillo,CA,93010,,,,No,,(805) 233-3378,Yes
-121.325462,38.661518,Neighborhood Market,Walmart,5981,NA,6005 Madison Ave,Carmichael,CA,95608,I-80,,,No, 96,(916) 534-1157,Yes
-118.264244,33.848163,Neighborhood Market,Walmart,5602,NA,20226 Avalon Blvd,Carson,CA,90746,I-405,,,No, 35,(424) 233-3317,Yes
-120.937377,37.607452,Regular,Walmart,1983,NA,1670 Mitchell Rd,Ceres,CA,95307,,,,No,,(209) 541-0253,Yes
-118.061848,33.871648,Supercenter,Walmart,2082,NA,12701 Towne Center Dr,Cerritos,CA,90703,,,,No,,(562) 924-1486,Yes
-121.803645,39.72324,Regular,Walmart,2044,NA,2044 Forest Ave,Chico,CA,95928,,,,No,,(530) 899-8760,Yes
-117.718236,33.995704,Supercenter,Walmart,3464,NA,3943 Grand Ave,Chino,CA,91710,,,,No,,(909) 364-1968,Yes
-117.686016,34.032024,NA,Sam's Club,6610,Gas,3951 Grand Ave,Chino,CA,91710,,,,No,,(909) 548-6173,
-117.082547,32.607393,Regular,Walmart,5305,NA,1150 Broadway,Chula Vista,CA,91911,I-5,,,No, 6,(619) 591-4910,
-116.967209,32.631462,Supercenter,Walmart,3516,NA,1360 Eastlake Pkwy,Chula Vista,CA,91915,,,,No,,(619) 858-0071,Yes
-117.094029,32.651029,Regular,Walmart,2291,NA,75 N Broadway,Chula Vista,CA,91910,I-5,,,No, 8,(619) 691-7945,
-117.024426,32.636682,Supercenter,Walmart,3947,NA,875 East H St,Chula Vista,CA,91910,,,,No,,(619) 205-4259,
-121.27163,38.677213,Neighborhood Market,Walmart,4759,NA,6197 SunriSE Blvd,Citrus Heights,CA,95610,,,,No,,(916) 560-0031,Yes
-121.295299,38.690438,Supercenter,Walmart,3712,NA,7010 Auburn Blvd,Citrus Heights,CA,95621,,,,No,,(916) 729-8077,Yes
-121.29608,38.67964,NA,Sam's Club,4799,Gas,7147 Greenback Lane,Citrus Heights,CA,95610,,,,No,,(916) 721-6527,
-117.932167,33.999069,Supercenter,Walmart,2251,NA,17150 Gale Ave,City Of Industry,CA,91745,,,,No,,(626) 854-1166,Yes
-122.616503,38.930733,Regular,Walmart,1979,NA,15960 Dam Rd,Clearlake,CA,95422,,,,No,,(707) 994-6881,
-119.695912,36.838806,Supercenter,Walmart,5337,NA,1185 Herndon Ave,Clovis,CA,93611,,,,No,,(559) 321-0067,Yes
-119.680902,36.807426,Neighborhood Market,Walmart,5633,NA,1830 Shaw Ave,Clovis,CA,93611,,,,No,,(559) 862-2718,Yes
-119.71679,36.810619,Supercenter,Walmart,2277,NA,323 W Shaw Ave,Clovis,CA,93612,,,,No,,(559) 297-4176,Yes
-116.215087,33.699123,Neighborhood Market,Walmart,2826,NA,83053 Ave 48,Coachelle,CA,92201,,,,No,,(760) 262-8050,
-117.306871,34.049653,Supercenter,Walmart,1692,NA,1120 S Mt Vernon Ave,Colton,CA,92324,I-215,,,No, 39,(909) 783-0497,Yes
-118.207094,33.909891,Regular,Walmart,5807,NA,2100 N Long Beach Blvd,Compton,CA,90221,,,,No,,(562) 295-3870,
-122.054364,37.981613,NA,Sam's Club,6612,NA,1225 Concord Ave,Concord,CA,94520,I-680,,,No, 40,(909) 371-7220,
-117.54033,33.845723,Supercenter,Walmart,2842,NA,1290 E Ontario Ave,Corona,CA,92881,I-15,,,No, 93,(951) 278-0924,Yes
-117.537725,33.846891,NA,Sam's Club,4709,Gas,1375 E Ontario Ave,Corona,CA,92882,I-15,,,No, 93,(951) 582-0319,
-117.596153,33.877601,Neighborhood Market,Walmart,2487,NA,1560 W 6th St,Corona,CA,92882,,,,No,,(951) 393-6405,Yes
-117.518023,33.890412,Supercenter,Walmart,1912,NA,479 N Mckinley St.,Corona,CA,92879,,,,No,,(951) 270-0707,Yes
-117.90932,34.103335,Supercenter,Walmart,2292,NA,1275 N Azusa Ave,Covina,CA,91722,I-210,,,No, 40,(626) 339-4161,Yes
-124.190094,41.774071,Supercenter,Walmart,1910,NA,900 E Washington Blvd,Crescent City,CA,95531,,,,No,,(707) 464-1198,Yes
-119.244414,35.74691,Supercenter,Walmart,5215,NA,530 Woollomes Ave,Delano,CA,93215,,,,No,,(661) 370-4061,Yes
-117.81074,34.001401,Neighborhood Market,Walmart,4762,NA,1180 S Diamond Bar Blvd,Diamond Bar,CA,91765,,,,No,,(909) 378-4055,Yes
-119.402313,36.544373,Supercenter,Walmart,5394,NA,770 W El Monte Way,Dinuba,CA,93618,,,,No,,(559) 591-0380,Yes
-121.820375,38.470824,Supercenter,Walmart,5139,NA,235 E Dorset Dr,Dixon,CA,95620,I-80,,,No, 66,(707) 693-6505,
-118.148201,33.928275,Neighborhood Market,Walmart,5603,NA,12270 Paramount Blvd,Downey,CA,90242,I-105,,,No,Exit 15,(562) 622-4891,Yes
-118.128173,33.923,Supercenter,Walmart,4132,NA,9001 Apollo Way,Downey,CA,90242,,,,No,,(562) 803-3507,Yes
-117.984813,34.134144,Regular,Walmart,2401,NA,1600 S Mountain Ave,Duarte,CA,91010,I-210,,,No, 35,(626) 359-7708,Yes
-116.901577,32.823543,Supercenter,Walmart,2253,NA,13487 Camino Canada,El Cajon,CA,92021,,,,No,,(619) 561-0828,Yes
-116.936099,32.798004,Neighborhood Market,Walmart,4169,NA,300 N 2nd St,El Cajon,CA,92021,I-8,,,No, 19,(619) 219-5246,Yes
-116.96931,32.804315,Regular,Walmart,3524,NA,605 Fletcher Pkwy,El Cajon,CA,92020,,,,No,,(619) 440-2009,Yes
-115.575783,32.813368,Supercenter,Walmart,1555,NA,2150 N Waterman Ave,El Centro,CA,92243,,,,No,,(760) 337-1600,
-118.027997,34.09321,NA,Sam's Club,6614,Gas/Diesel,4901 Santa Anita Ave,El Monte,CA,91731,,,,No,,(626) 575-0973,
-121.416431,38.39267,Regular,Walmart,5848,NA,10075 Bruceville Rd,Elk Grove,CA,95757,,,,No,,(916) 585-7344,Yes
-121.392028,38.409567,Neighborhood Market,Walmart,5683,NA,8455 Elk Grove Blvd,Elk Grove,CA,95758,,,,No,,(916) 509-3170,Yes
-121.391523,38.41115,Regular,Walmart,1697,NA,8465 Elk Grove Blvd,Elk Grove,CA,95758,,,,No,,(916) 684-7100,Yes
-117.265851,33.068309,Supercenter,Walmart,5886,NA,1550 Leucadia Blvd,Encinitas,CA,92024,I-5,,,No,Exit 43,(760) 704-0243,Yes
-117.06567,33.131107,Neighborhood Market,Walmart,3084,NA,1266 E Valley Pkwy,Escondido,CA,92027,,,,No,,(760) 871-6760,Yes
-117.06265,33.129641,Regular,Walmart,5996,NA,1330 E Grand Ave,Escondido,CA,92027,,,,No,,(760) 871-6622,
-124.189786,40.781286,Regular,Walmart,5629,NA,3300 Broadway Bayshore Mall,Eureka,CA,95501,,,,No,,(707) 832-5269,
-122.034735,38.278948,Supercenter,Walmart,2048,NA,2701 N Texas St,Fairfield,CA,94533,I-80,,,No,Exit 43,(707) 428-4792,Yes
-121.166947,38.669234,Supercenter,Walmart,1760,NA,1018 Riley St,Folsom,CA,95630,,,,No,,(916) 983-1090,Yes
-121.118978,38.644945,NA,Sam's Club,6620,Gas,2495 Iron Point Rd #11,Folsom,CA,95630,,,,No,,(916) 817-8965,
-117.429056,34.105569,Regular,Walmart,1756,NA,17251 Foothills Blvd.,Fontana,CA,92335,,,,No,,(909) 355-6922,Yes
-117.670347,33.679859,Supercenter,Walmart,2218,NA,26502 Towne Center Dr,Foothill Ranch,CA,92610,,,,No,,(949) 588-7923,Yes
-117.955677,33.714348,NA,Sam's Club,6615,Gas/Diesel,17099 Brookhurst St,Fountain Valley,CA,92708,I-405,,,No, 13,(714) 968-9782,
-121.986147,37.519426,Regular,Walmart,5426,NA,40580 Albrae St,Fremont,CA,94538,I-880,,,No, 16,(510) 440-8060,Yes
-121.94219,37.511489,Regular,Walmart,2989,NA,44009 Osgood Rd,Fremont,CA,94539,I-680,,,No, 14,(510) 651-3301,Yes
-119.789322,36.793815,Supercenter,Walmart,5632,NA,1804 E Ashlan Ave,Fresno,CA,93726,,,,No,,(559) 470-6967,Yes
-119.756042,36.7789,Neighborhood Market,Walmart,2689,NA,3131 N Cedar Ave,Fresno,CA,93703,,,,No,,(559) 538-1375,Yes
-119.860334,36.809835,Regular,Walmart,1815,NA,3680 W Shaw,Fresno,CA,93711,,,,No,,(559) 277-8191,Yes
-119.72145,36.73746,Supercenter,Walmart,2001,NA,5125 E Kings Canyon,Fresno,CA,93727,,,,No,,(559) 252-9457,Yes
-119.729655,36.835955,Neighborhood Market,Walmart,5634,NA,6855 N Willow Ave,Fresno,CA,93710,,,,No,,(559) 862-2062,
-119.803447,36.838467,Regular,Walmart,2985,NA,7065 N Ingram Ave,Fresno,CA,93650,,,,No,,(559) 431-0107,Yes
-119.79329,36.848681,NA,Sam's Club,4704,NA,7663 N Blackstone Ave,Fresno,CA,93720,,,,No,,(559) 446-0106,
-117.88247,33.865345,NA,Sam's Club,6616,NA,603 S PLntia Ave,Fullerton,CA,92831,,,,No,,(714) 738-1251,
-121.304668,38.290764,Supercenter,Walmart,5231,NA,10470 Twin Cities Rd,Galt,CA,95632,Hwy 99,,,No, 277,(209) 744-1938,Yes
-117.942214,33.802975,Neighborhood Market,Walmart,5639,NA,10912 Katella Ave,Garden Grove,CA,92840,I-5,,,No, 109,(714) 620-3822,Yes
-117.966606,33.790918,Supercenter,Walmart,4171,NA,11822 Gilbert St,Garden Grove,CA,92841,,,,No,,(714) 591-1300,Yes
-118.297248,33.87387,NA,Sam's Club,6617,NA,1399 Artesia Blvd,Gardena,CA,90247,I-405,,,No, 38,(310) 532-0779,
-121.551456,37.007596,Supercenter,Walmart,2002,NA,7150 Camino Arroyo,Gilroy,CA,95020,,,,No,,(408) 848-8161,Yes
-117.833195,34.11536,NA,Sam's Club,6240,Gas/Diesel,1301 S Lone Hill Ave,Glendora,CA,91740,I-210,,,No, 44,(909) 394-4556,
-117.826802,34.116489,Supercenter,Walmart,1941,NA,1950 Auto Center Dr,Glendora,CA,91740,I-210,,,No, 45/25,(909) 592-4866,Yes
-121.224949,38.743124,Neighborhood Market,Walmart,5980,NA,4080 Douglas Blvd,Granite Bay,CA,95746,I-80,,,No,Exit 103,(916) 380-3252,Yes
-119.675057,36.321698,Supercenter,Walmart,1645,NA,250 S 12th Ave,Hanford,CA,93230,,,,No,,(559) 583-6292,
-118.362099,33.900227,Neighborhood Market,Walmart,5604,NA,14441 Inglewood Ave,Hawthorne,CA,90260,,,,No,,(424) 336-2212,Yes
-117.008669,33.726457,Supercenter,Walmart,1853,NA,1231 S Sanderson Ave,Hemet,CA,92545,,,,No,,(951) 766-1164,Yes
-116.979091,33.744636,Neighborhood Market,Walmart,5008,NA,859 W Florida Ave,Hemet,CA,92543,,,,No,,(951) 492-3029,
-117.371471,34.425964,Supercenter,Walmart,4340,NA,13401 Main St,Hesperia,CA,92345,I-15,,,No,Exit 143,(760) 948-4851,
-117.195187,34.136938,Supercenter,Walmart,1914,NA,4210 E Highland Ave,Highland,CA,92346,,,,No,,(909) 425-8846,Yes
-117.987406,33.655354,Neighborhood Market,Walmart,5601,NA,21132 Beach Blvd,Huntington Beach,CA,92646,,,,No,,(714) 274-4484,Yes
-117.986419,33.700229,Regular,Walmart,2636,NA,8230 Talbert Ave,Huntington Beach,CA,92646,,,,No,,(714) 841-5390,Yes
-116.266473,33.728658,Neighborhood Market,Walmart,8958,NA,44100 Jefferson St,Indio,CA,92201,,,,No,,(760) 895-6030,
-116.229164,33.742639,Supercenter,Walmart,2181,NA,82491 Ave 42,Indio,CA,92203,I-10,,,No, 142/143,(760) 262-8004,
-117.834973,33.698287,Supercenter,Walmart,5644,NA,16555 Von Karman Ave,Irvine,CA,92606,I-405,,,No,Exit 7,(949) 623-7467,Yes
-117.741385,33.657427,Supercenter,Walmart,5687,NA,71 Technology Dr,Irvine,CA,92618,I-5,,,No, 94,(949) 623-6587,Yes
-120.804952,38.358069,Regular,Walmart,2054,NA,10355 Wicklow Way,Jackson,CA,95654,,,,No,,(209) 223-5384,
-117.476743,33.974852,Neighborhood Market,Walmart,5663,NA,8844 Limonite Ave,Jurupa Valley,CA,92509,,,,No,,(951) 968-7218,Yes
-120.045352,36.734595,Supercenter,Walmart,5701,NA,14061 W Whitesbridge Ave,Kerman,CA,93630,,,,No,,(559) 846-1200,Yes
-117.934836,33.916761,Supercenter,Walmart,5641,NA,1000 E Imperial Hwy,La Habra,CA,90631,,,,No,,(714) 869-0530,Yes
-117.966922,33.915105,Supercenter,Walmart,3248,NA,1340 S Beach Blvd,La Habra,CA,90631,,,,No,,(562) 694-2707,Yes
-117.970104,33.913477,NA,Sam's Club,4735,Gas,1390 S Beach Blvd,La Habra,CA,90631,,,,No,,(562) 697-9281,
-117.009043,32.77761,Regular,Walmart,5140,NA,5500 Grossmont Center Dr,La Mesa,CA,91942,,,,No,,(619) 337-3655,Yes
-117.006823,32.773552,Neighborhood Market,Walmart,5684,NA,8810 Grossmont Blvd,La Mesa,CA,91942,,,,No,,(619) 403-5392,Yes
-118.013693,33.918274,Neighborhood Market,Walmart,5661,NA,14865 Telegraph Rd,La Mirada,CA,90638,,,,No,,(562) 567-6488,Yes
-118.038386,33.846188,Neighborhood Market,Walmart,3099,NA,5420 La Palma Ave,La Palma,CA,90623,,,,No,,(714) 822-3152,Yes
-117.948942,34.046676,Neighborhood Market,Walmart,3133,NA,1425 N Hacienda Blvd,La Puente,CA,91744,,,,No,,(626) 251-1877,Yes
-116.281212,33.704398,Supercenter,Walmart,1805,NA,79295 Hwy 111,La Quinta,CA,92253,,,,No,,(760) 564-3313,Yes
-117.713226,33.564262,Regular,Walmart,2206,NA,27470 Alicia Pkwy,Laguna Niguel,CA,92677,,,,No,,(949) 360-0758,Yes
-117.295043,33.661841,Regular,Walmart,2077,NA,31700 Grape St,Lake Elsinore,CA,92530,I-15,,,No, 73,(951) 245-5990,
-118.158525,33.831284,Supercenter,Walmart,2609,Gas,2770 Carson St,Lakewood,CA,90712,,,,No,,(562) 429-6239,Yes
-118.097617,34.691243,Supercenter,Walmart,2951,Gas,1731 E Ave J,Lancaster,CA,93535,,,,No,,(661) 945-7848,Yes
-118.172776,34.69371,Supercenter,Walmart,1563,NA,44665 Valley Central Way,Lancaster,CA,93534,,,,No,,(661) 940-8744,Yes
-121.292341,38.888501,Neighborhood Market,Walmart,5979,NA,255 Lincoln Blvd,Lincoln,CA,95648,I-10,,,No,Exit 1A,(916) 209-5129,Yes
-121.768082,37.699873,Regular,Walmart,1972,NA,2700 Las Positas Rd,Livermore,CA,94550,I-580,,,No, 47,(925) 455-0215,Yes
-121.307837,38.113337,Supercenter,Walmart,1789,NA,1601 S Lower Sacramento Rd,Lodi,CA,95242,,,,No,,(209) 368-6696,Yes
-117.242637,34.048302,Neighborhood Market,Walmart,2998,NA,25755 Barton Rd,Loma Linda,CA,92354,,,,No,,(909) 283-7239,
-120.465177,34.662009,Supercenter,Walmart,1989,NA,701 W Central Ave,Lompoc,CA,93436,,,,No,,(805) 735-9088,Yes
-118.149111,33.860518,Supercenter,Walmart,4101,NA,3705 E S St,Long Beach,CA,90805,,,,No,,(562) 582-1003,Yes
-118.091326,33.829259,Supercenter,Walmart,3477,NA,7250 Carson Blvd,Long Beach,CA,90808,I-605,,,No, 3,(562) 425-5113,Yes
-118.083486,33.827162,NA,Sam's Club,6613,Gas,7480 Carson Blvd,Long Beach,CA,90808,I-605,,,No, 3,(562) 425-0662,
-120.878932,37.054834,Supercenter,Walmart,2117,NA,1575 W Pacheco Blvd,Los Banos,CA,93635,,,,No,,(209) 826-9655,
-120.082287,36.975477,Regular,Walmart,1583,NA,1977 Cleveland Ave,Madera,CA,93637,,,,No,,(559) 675-9212,
-121.217681,37.785651,Supercenter,Walmart,1840,NA,1205 S Main St,Manteca,CA,95337,,,,No,,(209) 824-2000,
-121.800565,36.69359,Supercenter,Walmart,4488,NA,150 Beach Rd,Marina,CA,93933,,,,No,,(831) 883-9138,Yes
-122.108671,37.996546,Regular,Walmart,3493,NA,1021 Arnold Dr,Martinez,CA,94553,,,,No,,(925) 313-5716,Yes
-121.573059,39.126865,Supercenter,Walmart,5136,NA,1131 N Beale Rd,Marysville,CA,95901,,,,No,,(530) 634-9751,Yes
-120.500833,37.317985,Regular,Walmart,2039,NA,3055 Loughborough Dr,Merced,CA,95348,,,,No,,(209) 384-1275,Yes
-121.92022,37.431104,Supercenter,Walmart,2119,NA,301 Ranch Dr,Milpitas,CA,95035,I-880,,,No, 47,(408) 934-0304,Yes
-120.976622,37.664054,Neighborhood Market,Walmart,3046,NA,1421 Coffee Rd,Modesto,CA,95355,,,,No,,(209) 222-5632,Yes
-121.036889,37.672584,Regular,Walmart,1587,NA,2225 Plaza Pkwy,Modesto,CA,95350,,,,No,,(209) 524-4733,Yes
-120.994174,37.694531,Supercenter,Walmart,5710,NA,3848 Mchenry Ave,Modesto,CA,95350,,,,No,,(209) 342-0949,Yes
-117.180781,33.935863,Supercenter,Walmart,5193,NA,12721 Moreno Beach Dr,Moreno Valley,CA,92555,,,,No,,(951) 242-1185,
-121.655522,37.149811,Supercenter,Walmart,5766,NA,170 Cochrane Plaza,Morgan Hill,CA,95037,,,,No,,(408) 779-8172,Yes
-122.109088,37.401457,Regular,Walmart,2280,NA,600 Showers Dr,Mountain View,CA,94040,,,,No,,(650) 917-0796,Yes
-117.177504,33.554075,NA,Sam's Club,4822,Gas,40500 Murrieta Hot Springs Rd,Murrieta,CA,92563,I-15,,,No, 64,(951) 696-4500,
-117.193567,33.552902,Regular,Walmart,2952,NA,41200 Murrieta Hot Springs Rd,Murrieta,CA,92562,I-15,,,No, 64,(951) 696-7135,Yes
-122.28327,38.309653,Supercenter,Walmart,2925,NA,681 Lincoln Ave,Napa,CA,94559,,,,No,,(707) 224-8797,Yes
-117.098304,32.674348,Supercenter,Walmart,5023,NA,1200 Highland Ave,National City,CA,91950,I-5,,,No, 10,(619) 336-0395,Yes
-121.383715,38.649872,Supercenter,Walmart,4393,NA,4675 Watt Ave,North Highlands,CA,95660,,,,No,,(916) 621-1454,
-118.082984,33.917688,Regular,Walmart,5164,NA,11729 Imperial Hwy,Norwalk,CA,90650,,,,No,,(562) 929-6766,Yes
-117.375615,33.198562,Neighborhood Market,Walmart,5637,NA,1046 Mission Ave,Oceanside,CA,92054,I-5,,,No, 53,(760) 696-9906,Yes
-117.346746,33.180684,Supercenter,Walmart,2494,NA,2100 Vista Way,Oceanside,CA,92054,I-5,,,No, 51,(760) 966-0026,Yes
-117.296743,33.177158,Supercenter,Walmart,5075,NA,3405 Marron Rd,Oceanside,CA,92056,,,,No,,(760) 730-1371,Yes
-117.290684,33.242206,Supercenter,Walmart,2245,NA,705 College Blvd,Oceanside,CA,92057,,,,No,,(760) 631-0434,Yes
-117.670455,34.083315,Supercenter,Walmart,3796,NA,1333 N Mountain Ave,Ontario,CA,91762,,,,No,,(909) 321-3165,Yes
-117.559903,34.073622,NA,Sam's Club,6619,Gas,951 N Milliken,Ontario,CA,91761,I-10,,,No, 57,(909) 476-9259,
-117.83745,33.828093,Regular,Walmart,2546,NA,2300 N Tustin St,Orange,CA,92865,,,,No,,(714) 998-4473,Yes
-121.22328,38.679118,Supercenter,Walmart,4309,NA,8961 Greenback Lane,Orangevale,CA,95662,,,,No,,(916) 989-5800,Yes
-121.573334,39.497327,Regular,Walmart,1575,NA,355 Oro Dam Blvd,Oroville,CA,95965,,,,No,,(530) 534-1082,Yes
-119.160102,34.220236,Supercenter,Walmart,2032,NA,2001 N RoSE Ave,Oxnard,CA,93036,,,,No,,(805) 981-4884,Yes
-119.160303,34.223676,NA,Sam's Club,6455,NA,2401 N RoSE Ave,Oxnard,CA,93036,Hwy 101,,,No, 61,(805) 983-2442,
-119.178066,34.17473,Regular,Walmart,3087,NA,2701 Saviers Rd,Oxnard,CA,93033,,,,No,,(805) 200-5224,Yes
-119.17934,34.236503,Neighborhood Market,Walmart,5643,NA,421 W Esplanade Dr,Oxnard,CA,93036,Hwy 101,,,No, 61,(805) 604-2082,Yes
-116.385383,33.800065,NA,Sam's Club,6609,Gas/Diesel,34220 Monterey Ave,Palm Desert,CA,92260,,,,No,,(760) 321-6655,
-116.386207,33.798088,Supercenter,Walmart,5096,NA,34500 Monterey Ave,Palm Desert,CA,92260,,,,No,,(760) 328-4375,
-116.401626,33.727429,Neighborhood Market,Walmart,3026,NA,72314 Hwy 111,Palm Desert,CA,92260,,,,No,,(760) 469-3428,Yes
-116.486568,33.814126,Supercenter,Walmart,1832,NA,5601 E Ramon Rd,Palm Springs,CA,92262,I-10,,,No, 130,(760) 322-3906,Yes
-118.043278,34.556827,Supercenter,Walmart,2950,Gas/Diesel,37140 47th St E,Palmdale,CA,93552,,,,No,,(661) 533-0248,Yes
-118.211487,34.617802,Neighborhood Market,Walmart,5689,NA,3875 Rancho Vista Blvd,Palmdale,CA,93551,,,,No,,(661) 202-3602,Yes
-118.145401,34.607812,NA,Sam's Club,4767,Gas,39940 10th St,Palmdale,CA,93550,,,,No,,(909) 628-9273,
-118.145604,34.611785,Supercenter,Walmart,1660,NA,40130 10th St. W,Palmdale,CA,93551,,,,No,,(661) 267-6496,
-118.449074,34.235011,Neighborhood Market,Walmart,5605,NA,14530 Nordhoff St,Panorama City,CA,91402,I-5,,,No,Exit 154,(818) 672-0142,Yes
-118.450502,34.222608,Regular,Walmart,2568,NA,8333 Van Nuys Blvd,Panorama City,CA,91402,I-405,,,No, 68,(818) 830-0350,Yes
-118.144237,33.902208,Supercenter,Walmart,2110,NA,14501 Lakewood Blvd,Paramount,CA,90723,,,,No,,(562) 531-8240,Yes
-120.681383,35.613332,Regular,Walmart,2099,NA,180 Niblick Rd,Paso Robles,CA,93446,,,,No,,(805) 238-1212,Yes
-121.142528,37.464052,Supercenter,Walmart,5843,NA,1030 Sperry Ave,Patterson,CA,95363,,,,No,,(209) 895-4407,Yes
-117.227299,33.820028,Supercenter,Walmart,1747,Gas,1800 N Perris Blvd,Perris,CA,92571,I-215,,,No, 19,(951) 940-0440,Yes
-118.104526,33.985682,Supercenter,Walmart,2886,NA,8500 Washington Blvd,Pico Rivera,CA,90660,,,,No,,(562) 801-2413,Yes
-121.868986,38.009054,Regular,Walmart,1615,NA,2203 Loveridge Rd,Pittsburg,CA,94565,,,,No,,(925) 427-2022,Yes
-120.829941,38.70453,Regular,Walmart,2418,NA,4300 Missouri Flat Rd,Placerville,CA,95667,,,,No,,(530) 621-2917,Yes
-121.877558,37.689969,Neighborhood Market,Walmart,5611,NA,3112 Santa Rita Rd,Pleasanton,CA,94566,I-580,,,No, 42B/43,(925) 398-6369,Yes
-121.886472,37.698056,Regular,Walmart,2161,NA,4501 Rosewood Dr,Pleasanton,CA,94588,I-580,,,No, 42B/43,(925) 734-8744,Yes
-117.73767,34.08944,Neighborhood Market,Walmart,3132,NA,778 E Arrow Hwy,Pomona,CA,91767,,,,No,,(909) 962-5011,Yes
-117.758308,34.028632,Regular,Walmart,2288,NA,80 Rio Rancho Rd,Pomona,CA,91766,,,,No,,(909) 620-4602,Yes
-118.566814,34.276875,Supercenter,Walmart,2526,NA,19821 Rinaldi St,Porter Ranch,CA,91326,,,,No,,(818) 832-0643,Yes
-119.045206,36.082537,Regular,Walmart,1877,NA,1250 W Henderson Ave,Porterville,CA,93257,,,,No,,(559) 783-8195,
-117.03878,32.95898,Supercenter,Walmart,1700,NA,13425 Community Rd,Poway,CA,92064,,,,No,,(858) 486-1882,Yes
-121.290875,38.59526,Supercenter,Walmart,2457,NA,10655 Folsom Blvd,Rancho Cordova,CA,95670,,,,No,,(916) 361-0296,Yes
-117.531325,34.104178,Regular,Walmart,1922,NA,12549 Foothill Blvd.,Rancho Cucamonga,CA,91739,I-15,,,No, 112,(909) 899-1441,Yes
-117.600935,33.64079,Neighborhood Market,Walmart,5600,NA,30491 Avenida De Las Flores,Rancho Santa Margarita,CA,92688,Hwy 214,,,No, 19,(949) 207-5070,
-122.23092,40.162207,Supercenter,Walmart,1608,NA,608 Luther Rd,Red Bluff,CA,96080,I-5,,,No, 647,(530) 529-5540,
-122.344445,40.583952,Supercenter,Walmart,2537,NA,1515 Dana Dr,Redding,CA,96003,I-5,,,No, 67B,(530) 221-2800,Yes
-117.222933,34.06416,Regular,Walmart,1693,NA,2050 W Redlands Blvd,Redlands,CA,92374,I-10,,,No, 77 B/C,(909) 798-9114,Yes
-117.371187,34.072164,Supercenter,Walmart,1862,NA,1610 S Riverside Ave,Rialto,CA,92376,I-10,,,No, 67,(909) 820-9912,Yes
-117.366289,34.121638,Neighborhood Market,Walmart,3131,NA,300 W Baseline Rd,Rialto,CA,92376,,,,No,,(909) 546-3019,Yes
-122.328368,37.978975,Regular,Walmart,3455,NA,1400 Hilltop Mall Rd,Richmond,CA,94806,I-80,,,No, 19,(510) 669-1342,Yes
-117.66868,35.606829,Supercenter,Walmart,1600,NA,201 E Bowman Rd,Ridgecrest,CA,93555,,,,No,,(760) 371-4974,
-117.455214,33.936539,Supercenter,Walmart,2028,NA,5200 Van Buren Blvd,Riverside,CA,92503,,,,No,,(951) 689-4595,Yes
-117.286597,33.93956,Supercenter,Walmart,1899,NA,6250 Valley Springs Pkwy,Riverside,CA,92507,I-215,,,No,Exit 58,(951) 653-4849,Yes
-117.288577,33.936278,NA,Sam's Club,6378,Gas,6363 Valley Springs Pkwy,Riverside,CA,92507,I-215,,,No, 29,(951) 653-4840,
-121.203643,38.80177,Supercenter,Walmart,3587,NA,5454 Crossings Dr,Rocklin,CA,95661,I-80,,,No, 103,(916) 783-8281,Yes
-121.240115,38.783624,Neighborhood Market,Walmart,3090,NA,5609 Pacific St,Rocklin,CA,95677,I-80,,,No, 106,(916) 824-0104,Yes
-122.715191,38.38367444,Regular,Walmart,1755,NA,4625 Redwood Dr,Rohnert Park,CA,94928,,,,No,,(707) 586-3717,Yes
-122.693305,38.361288,Neighborhood Market,Walmart,2468,NA,901 Golf CourSE Dr,Rohnert Park,CA,94928,,,,No,,(707) 540-9303,Yes
-121.256172,38.747284,Supercenter,Walmart,4202,NA,1400 Lead Hill Blvd,Roseville,CA,95661,I-80,,,No, 103,(916) 724-0012,Yes
-121.290405,38.787001,Supercenter,Walmart,1988,NA,900 Pleasant Grove Blvd,Roseville,CA,95678,,,,No,,(916) 786-6768,Yes
-121.288873,38.786282,NA,Sam's Club,6621,Gas,904 Pleasant Grove Blvd,Roseville,CA,95678,,,,No,,(916) 781-8160,
-118.0839,34.050379,Supercenter,Walmart,5154,NA,1827 Walnut Grove Blvd,Rosmead,CA,91770,I-10,,,No, 252,(626) 307-1010,Yes
-121.398873,38.617419,Neighborhood Market,Walmart,5982,NA,2700 Marconi Ave,Sacramento,CA,95821,,,,No,,(916) 576-6657,Yes
-121.383986,38.609485,Supercenter,Walmart,5230,NA,3460 El Camino Ave,Sacramento,CA,95821,,,,No,,(916) 977-0201,Yes
-121.504904,38.635546,Regular,Walmart,2598,NA,3661 Truxel Rd,Sacramento,CA,95833,I-5,,,No, 522,(916) 928-9668,Yes
-121.540726,38.506756,Neighborhood Market,Walmart,6530,NA,4420 Florin Rd,Sacramento,CA,95823,Hwy,,,No,99 Exit 293,(916) 533-0942,
-121.330824,38.703544,Supercenter,Walmart,5192,NA,5821 Antelope N Rd,Sacramento,CA,95843,,,,No,,(916) 729-6162,Yes
-121.433464,38.498509,Supercenter,Walmart,2735,NA,6051 Florin Rd,Sacramento,CA,95827,,,,No,,(916) 427-9719,
-121.40709,38.457764,NA,Sam's Club,6622,Gas/Diesel,8250 Power Inn Rd,Sacramento,CA,95828,,,,No,,(916) 688-2126,
-121.492826,38.459559,Supercenter,Walmart,2464,NA,8270 Delta Shores Blvd,Sacramento,CA,95832,,,,No,,(916) 665-1011,
-121.369899,38.482687,Supercenter,Walmart,3081,NA,8915 Gerber Rd,Sacramento,CA,95829,,,,No,,(916) 897-5020,Yes
-121.668041,36.705571,Supercenter,Walmart,5751,NA,1375 N Davis Rd,Salinas,CA,93907,,,,No,,(831) 998-9080,Yes
-121.650778,36.7182,Supercenter,Walmart,2458,NA,1800 N Main St,Salinas,CA,93907,,,,No,,(831) 751-0231,Yes
-117.263311,34.065899,NA,Sam's Club,6624,Gas,1055 E Harriman Pl,San Bernardino,CA,92408,,,,No,,(909) 796-1505,
-117.335581,34.163499,Regular,Walmart,3276,NA,4001 Hallmark Pkwy,San Bernardino,CA,92407,,,,No,,(909) 880-4038,Yes
-117.605794,33.455188,Regular,Walmart,2527,NA,951 Avenida Pico,San Clemente,CA,92673,,,,No,,(949) 498-6669,Yes
-117.144594,32.706198,Neighborhood Market,Walmart,5638,NA,2121 Imperial Ave,San Diego,CA,92102,I-5,,,No, 14,(619) 849-5729,Yes
-117.115323,32.805372,Regular,Walmart,2177,NA,3382 Murphy Canyon Rd,San Diego,CA,92123,I-15,,,No, 8,(858) 571-6094,Yes
-117.05239,32.741777,Supercenter,Walmart,2479,NA,3412 College AvE ,San Diego,CA,92115,,,,No,,(619) 858-0071,Yes
-117.164955,32.830221,Regular,Walmart,5338,NA,4840 Shawline St,San Diego,CA,92111,,,,No,,(858) 268-2885,Yes
-117.089283,32.586185,Regular,Walmart,5938,NA,575 Saturn Blvd,San Diego,CA,92154,I-5,,,No,Exit 5,(619) 205-6140,Yes
-117.056331,32.739014,NA,Sam's Club,6235,NA,6336 College Grove Way,San Diego,CA,92115,,,,No,,(818) 837-4791,
